[
  {
    "id": "BR-RN-RIC-001",
    "name": "Le Dune Beach",
    "address": "Piazzale S.Allende, 47838 Riccione RN, Italia",
    "city": "Riccione",
    "province": "RN",
    "region": "Emilia-Romagna",
    "baselineLevel": 2,
    "baselineSource": "PRED",
    "lat": 44.0229275,
    "lng": 12.6338879,
    "notes": "lat/lng to be filled via overrides/geocoding pipeline.",
    "geocodeMeta": {
      "status": "OVERRIDE",
      "source": "GOOGLE_EARTH"
    }
  },
  {
    "id": "BR-RN-RIC-002",
    "name": "Hyper Beach Riccione",
    "address": "Viale D'Annunzio Spiaggia 138, 47838 Riccione RN, Italia",
    "city": "Riccione",
    "province": "RN",
    "region": "Emilia-Romagna",
    "baselineLevel": 2,
    "baselineSource": "PRED",
    "lat": 44.0210534,
    "lng": 12.6362829,
    "notes": "lat/lng to be filled via overrides/geocoding pipeline.",
    "geocodeMeta": {
      "status": "OVERRIDE",
      "source": "GOOGLE_EARTH"
    }
  },
  {
    "id": "BR-RN-RIC-003",
    "name": "Mojito Spiaggia",
    "address": "Passeggiata Goethe 52, 47838 Riccione RN, Italia",
    "city": "Riccione",
    "province": "RN",
    "region": "Emilia-Romagna",
    "baselineLevel": 2,
    "baselineSource": "PRED",
    "lat": 44.0200339,
    "lng": 12.6376743,
    "notes": "lat/lng to be filled via overrides/geocoding pipeline.",
    "geocodeMeta": {
      "status": "OVERRIDE",
      "source": "GOOGLE_EARTH"
    }
  },
  {
    "id": "BR-RN-RIC-004",
    "name": "Op√®ra Beach Club",
    "address": "Passeggiata Johann Wolfgang Von Goethe 46, 47838 Riccione RN, Italia",
    "city": "Riccione",
    "province": "RN",
    "region": "Emilia-Romagna",
    "baselineLevel": 2,
    "baselineSource": "PRED",
    "lat": 44.019452,
    "lng": 12.6386869,
    "notes": "lat/lng to be filled via overrides/geocoding pipeline.",
    "geocodeMeta": {
      "status": "OVERRIDE",
      "source": "GOOGLE_EARTH"
    }
  },
  {
    "id": "BR-RN-RIC-005",
    "name": "Samsara Beach Riccione",
    "address": "Viale Gabriele D'Annunzio 150, 47838 Riccione RN, Italia",
    "city": "Riccione",
    "province": "RN",
    "region": "Emilia-Romagna",
    "baselineLevel": 2,
    "baselineSource": "PRED",
    "lat": 44.0189821,
    "lng": 12.6391231,
    "notes": "lat/lng to be filled via overrides/geocoding pipeline.",
    "geocodeMeta": {
      "status": "OVERRIDE",
      "source": "GOOGLE_EARTH"
    }
  },
  {
    "id": "BR-RN-RIC-006",
    "name": "Spiaggia129 BeachClub",
    "address": "Passeggiata Goethe, 47838 Riccione RN, Italia",
    "city": "Riccione",
    "province": "RN",
    "region": "Emilia-Romagna",
    "baselineLevel": 2,
    "baselineSource": "PRED",
    "lat": 44.0186895,
    "lng": 12.6399049,
    "notes": "lat/lng to be filled via overrides/geocoding pipeline.",
    "geocodeMeta": {
      "status": "OVERRIDE",
      "source": "GOOGLE_EARTH"
    }
  },
  {
    "id": "BR-RN-RIC-007",
    "name": "Spiaggia 130 131 Riccione",
    "address": "Viale Edmondo de Amicis, 47838 Riccione RN, Italia",
    "city": "Riccione",
    "province": "RN",
    "region": "Emilia-Romagna",
    "baselineLevel": 2,
    "baselineSource": "PRED",
    "lat": 44.0183398,
    "lng": 12.6401528,
    "notes": "lat/lng to be filled via overrides/geocoding pipeline.",
    "geocodeMeta": {
      "status": "OVERRIDE",
      "source": "GOOGLE_EARTH"
    }
  },
  {
    "id": "BR-RN-RIC-008",
    "name": "Spiaggia 128 Riccione",
    "address": "Via Massimo d'Azeglio, 47838 Riccione RN, Italia",
    "city": "Riccione",
    "province": "RN",
    "region": "Emilia-Romagna",
    "baselineLevel": 2,
    "baselineSource": "PRED",
    "lat": 44.0177834,
    "lng": 12.6408818,
    "notes": "lat/lng to be filled via overrides/geocoding pipeline.",
    "geocodeMeta": {
      "status": "OVERRIDE",
      "source": "GOOGLE_EARTH"
    }
  },
  {
    "id": "BR-RN-RIC-009",
    "name": "Bagno Nello 125",
    "address": "Viale D'Annunzio 125, 47838 Riccione RN, Italia",
    "city": "Riccione",
    "province": "RN",
    "region": "Emilia-Romagna",
    "baselineLevel": 2,
    "baselineSource": "PRED",
    "lat": 44.0171323,
    "lng": 12.6419638,
    "notes": "lat/lng to be filled via overrides/geocoding pipeline.",
    "geocodeMeta": {
      "status": "OVERRIDE",
      "source": "GOOGLE_EARTH"
    }
  },
  {
    "id": "BR-RN-RIC-010",
    "name": "Le Oasi 123 124 Riccione",
    "address": "Piazzale Aldo Moro, 47838 Riccione RN, Italia",
    "city": "Riccione",
    "province": "RN",
    "region": "Emilia-Romagna",
    "baselineLevel": 2,
    "baselineSource": "PRED",
    "lat": 44.0165583,
    "lng": 12.6420992,
    "notes": "lat/lng to be filled via overrides/geocoding pipeline.",
    "geocodeMeta": {
      "status": "OVERRIDE",
      "source": "GOOGLE_EARTH"
    }
  },
  {
    "id": "BR-RN-RIC-011",
    "name": "Bagni Nettuno 122A",
    "address": "Passeggiata Goethe zona 122A, 47838 Riccione RN, Italia",
    "city": "Riccione",
    "province": "RN",
    "region": "Emilia-Romagna",
    "baselineLevel": 2,
    "baselineSource": "PRED",
    "lat": 44.0159641,
    "lng": 12.6431923,
    "notes": "lat/lng to be filled via overrides/geocoding pipeline.",
    "geocodeMeta": {
      "status": "OVERRIDE",
      "source": "GOOGLE_EARTH"
    }
  },
  {
    "id": "BR-RN-RIC-012",
    "name": "Bagni 122 Bluemarine",
    "address": "Viale Gabriele D'Annunzio 112, 47838 Riccione RN, Italia",
    "city": "Riccione",
    "province": "RN",
    "region": "Emilia-Romagna",
    "baselineLevel": 2,
    "baselineSource": "PRED",
    "lat": 44.0156922,
    "lng": 12.6434874,
    "notes": "lat/lng to be filled via overrides/geocoding pipeline.",
    "geocodeMeta": {
      "status": "OVERRIDE",
      "source": "GOOGLE_EARTH"
    }
  },
  {
    "id": "BR-RN-RIC-013",
    "name": "Spiaggia 121",
    "address": "Viale Gabriele D'Annunzio 106, 47838 Riccione RN, Italia",
    "city": "Riccione",
    "province": "RN",
    "region": "Emilia-Romagna",
    "baselineLevel": 2,
    "baselineSource": "PRED",
    "lat": 44.0152305,
    "lng": 12.6442403,
    "notes": "lat/lng to be filled via overrides/geocoding pipeline.",
    "geocodeMeta": {
      "status": "OVERRIDE",
      "source": "GOOGLE_EARTH"
    }
  },
  {
    "id": "BR-RN-RIC-014",
    "name": "Bagni 120 Riccione",
    "address": "Via G. Verga, 47838 Riccione RN, Italia",
    "city": "Riccione",
    "province": "RN",
    "region": "Emilia-Romagna",
    "baselineLevel": 2,
    "baselineSource": "PRED",
    "lat": 44.0151014,
    "lng": 12.6445235,
    "notes": "lat/lng to be filled via overrides/geocoding pipeline.",
    "geocodeMeta": {
      "status": "OVERRIDE",
      "source": "GOOGLE_EARTH"
    }
  },
  {
    "id": "BR-RN-RIC-015",
    "name": "Bagni Luciano 119",
    "address": "Viale Petrarca, 47838 Riccione RN, Italia",
    "city": "Riccione",
    "province": "RN",
    "region": "Emilia-Romagna",
    "baselineLevel": 2,
    "baselineSource": "PRED",
    "lat": 44.0147399,
    "lng": 12.6449813,
    "notes": "lat/lng to be filled via overrides/geocoding pipeline.",
    "geocodeMeta": {
      "status": "OVERRIDE",
      "source": "GOOGLE_EARTH"
    }
  },
  {
    "id": "BR-RN-RIC-016",
    "name": "118 La Dolce Vita",
    "address": "Via U. Foscolo, 47838 Riccione RN, Italia",
    "city": "Riccione",
    "province": "RN",
    "region": "Emilia-Romagna",
    "baselineLevel": 2,
    "baselineSource": "PRED",
    "lat": 44.0145036,
    "lng": 12.6452281,
    "notes": "lat/lng to be filled via overrides/geocoding pipeline.",
    "geocodeMeta": {
      "status": "OVERRIDE",
      "source": "GOOGLE_EARTH"
    }
  },
  {
    "id": "BR-RN-RIC-017",
    "name": "Bagno 117 Alba D'Oro",
    "address": "Viale V. Alfieri, 47838 Riccione RN, Italia",
    "city": "Riccione",
    "province": "RN",
    "region": "Emilia-Romagna",
    "baselineLevel": 2,
    "baselineSource": "PRED",
    "lat": 44.01424,
    "lng": 12.645617,
    "notes": "lat/lng to be filled via overrides/geocoding pipeline.",
    "geocodeMeta": {
      "status": "OVERRIDE",
      "source": "GOOGLE_EARTH"
    }
  },
  {
    "id": "BR-RN-RIC-018",
    "name": "Bagni Elio zona 116",
    "address": "Viale Enza 5, 47838 Riccione RN, Italia",
    "city": "Riccione",
    "province": "RN",
    "region": "Emilia-Romagna",
    "baselineLevel": 2,
    "baselineSource": "PRED",
    "lat": 44.0139692,
    "lng": 12.645982,
    "notes": "lat/lng to be filled via overrides/geocoding pipeline.",
    "geocodeMeta": {
      "status": "OVERRIDE",
      "source": "GOOGLE_EARTH"
    }
  },
  {
    "id": "BR-RN-RIC-019",
    "name": "Bagni Oreste zona 115",
    "address": "Viale G. Mameli, 47838 Riccione RN, Italia",
    "city": "Riccione",
    "province": "RN",
    "region": "Emilia-Romagna",
    "baselineLevel": 2,
    "baselineSource": "PRED",
    "lat": 44.013658,
    "lng": 12.6464509,
    "notes": "lat/lng to be filled via overrides/geocoding pipeline.",
    "geocodeMeta": {
      "status": "OVERRIDE",
      "source": "GOOGLE_EARTH"
    }
  },
  {
    "id": "BR-RN-RIC-020",
    "name": "ùë©ùíÇùíàùíèùíä ùëµùíêùíóùíÜùíçùíçùíÇ ùüèùüèùüí ùëπùíäùíÑùíÑùíäùíêùíèùíÜ",
    "address": "Viale Claudio Monteverdi, 47838 Riccione RN, Italia",
    "city": "Riccione",
    "province": "RN",
    "region": "Emilia-Romagna",
    "baselineLevel": 2,
    "baselineSource": "PRED",
    "lat": 44.0134597,
    "lng": 12.6468895,
    "notes": "lat/lng to be filled via overrides/geocoding pipeline.",
    "geocodeMeta": {
      "status": "OVERRIDE",
      "source": "GOOGLE_EARTH"
    }
  },
  {
    "id": "BR-RN-RIC-021",
    "name": "Bagni Azzurra 113",
    "address": "Viale Claudio Monteverdi 130, 47838 Riccione RN, Italia",
    "city": "Riccione",
    "province": "RN",
    "region": "Emilia-Romagna",
    "baselineLevel": 2,
    "baselineSource": "PRED",
    "lat": 44.013051,
    "lng": 12.6470923,
    "notes": "lat/lng to be filled via overrides/geocoding pipeline.",
    "geocodeMeta": {
      "status": "OVERRIDE",
      "source": "GOOGLE_EARTH"
    }
  },
  {
    "id": "BR-RN-RIC-022",
    "name": "Unounodue Beach Bagni 112",
    "address": "Lungomare Costituzione 112, 47838 Riccione RN, Italia",
    "city": "Riccione",
    "province": "RN",
    "region": "Emilia-Romagna",
    "baselineLevel": 2,
    "baselineSource": "PRED",
    "lat": 44.0129248,
    "lng": 12.6474386,
    "notes": "lat/lng to be filled via overrides/geocoding pipeline.",
    "geocodeMeta": {
      "status": "OVERRIDE",
      "source": "GOOGLE_EARTH"
    }
  },
  {
    "id": "BR-RN-RIC-023",
    "name": "Bagni Alfredo 111",
    "address": "Piazzale Azzarita 111, 47838 Riccione RN, Italia",
    "city": "Riccione",
    "province": "RN",
    "region": "Emilia-Romagna",
    "baselineLevel": 2,
    "baselineSource": "PRED",
    "lat": 44.0127429,
    "lng": 12.6478152,
    "notes": "lat/lng to be filled via overrides/geocoding pipeline.",
    "geocodeMeta": {
      "status": "OVERRIDE",
      "source": "GOOGLE_EARTH"
    }
  },
  {
    "id": "BR-RN-RIC-024",
    "name": "Bagni Giorgio 110 La Spiaggia Del Cuore",
    "address": "Piazzale Azzarita 110, 47838 Riccione RN, Italia",
    "city": "Riccione",
    "province": "RN",
    "region": "Emilia-Romagna",
    "baselineLevel": 2,
    "baselineSource": "PRED",
    "lat": 44.0122173,
    "lng": 12.6485012,
    "notes": "lat/lng to be filled via overrides/geocoding pipeline.",
    "geocodeMeta": {
      "status": "OVERRIDE",
      "source": "GOOGLE_EARTH"
    }
  },
  {
    "id": "BR-RN-RIC-025",
    "name": "Playa del Sol 108-109 | Riccione",
    "address": "Lungomare Costituzione 58, 47838 Riccione RN, Italia",
    "city": "Riccione",
    "province": "RN",
    "region": "Emilia-Romagna",
    "baselineLevel": 2,
    "baselineSource": "PRED",
    "lat": 44.0119288,
    "lng": 12.6490999,
    "notes": "lat/lng to be filled via overrides/geocoding pipeline.",
    "geocodeMeta": {
      "status": "OVERRIDE",
      "source": "GOOGLE_EARTH"
    }
  },
  {
    "id": "BR-RN-RIC-026",
    "name": "Spiaggia 107",
    "address": "Lungomare Costituzione, 47838 Riccione RN, Italia",
    "city": "Riccione",
    "province": "RN",
    "region": "Emilia-Romagna",
    "baselineLevel": 2,
    "baselineSource": "PRED",
    "lat": 44.0112739,
    "lng": 12.6498273,
    "notes": "lat/lng to be filled via overrides/geocoding pipeline.",
    "geocodeMeta": {
      "status": "OVERRIDE",
      "source": "GOOGLE_EARTH"
    }
  },
  {
    "id": "BR-RN-RIC-027",
    "name": "Bagno 106 Paola",
    "address": "Lungomare Costituzione, 47838 Riccione RN, Italia",
    "city": "Riccione",
    "province": "RN",
    "region": "Emilia-Romagna",
    "baselineLevel": 2,
    "baselineSource": "PRED",
    "lat": 44.0111141,
    "lng": 12.6500566,
    "notes": "lat/lng to be filled via overrides/geocoding pipeline.",
    "geocodeMeta": {
      "status": "OVERRIDE",
      "source": "GOOGLE_EARTH"
    }
  },
  {
    "id": "BR-RN-RIC-028",
    "name": "Spiaggia Del Benessere 105",
    "address": "Lungomare Costituzione, 47838 Riccione RN, Italia",
    "city": "Riccione",
    "province": "RN",
    "region": "Emilia-Romagna",
    "baselineLevel": 2,
    "baselineSource": "PRED",
    "lat": 44.0109107,
    "lng": 12.6504425,
    "notes": "lat/lng to be filled via overrides/geocoding pipeline.",
    "geocodeMeta": {
      "status": "OVERRIDE",
      "source": "GOOGLE_EARTH"
    }
  },
  {
    "id": "BR-RN-RIC-029",
    "name": "Bagno 104 - Rino E Ivo",
    "address": "Lungomare Costituzione, 47838 Riccione RN, Italia",
    "city": "Riccione",
    "province": "RN",
    "region": "Emilia-Romagna",
    "baselineLevel": 2,
    "baselineSource": "PRED",
    "lat": 44.010646,
    "lng": 12.650726,
    "notes": "lat/lng to be filled via overrides/geocoding pipeline.",
    "geocodeMeta": {
      "status": "OVERRIDE",
      "source": "GOOGLE_EARTH"
    }
  },
  {
    "id": "BR-RN-RIC-030",
    "name": "Lido delle Sirene 101-102",
    "address": "Lungomare Costituzione 21, 47838 Riccione RN, Italia",
    "city": "Riccione",
    "province": "RN",
    "region": "Emilia-Romagna",
    "baselineLevel": 2,
    "baselineSource": "PRED",
    "lat": 44.0101203,
    "lng": 12.6515188,
    "notes": "lat/lng to be filled via overrides/geocoding pipeline.",
    "geocodeMeta": {
      "status": "OVERRIDE",
      "source": "GOOGLE_EARTH"
    }
  },
  {
    "id": "BR-RN-RIC-031",
    "name": "Original Beach 100 3x3beachcaff√®",
    "address": "Lungomare Costituzione 100, 47838 Riccione RN, Italia",
    "city": "Riccione",
    "province": "RN",
    "region": "Emilia-Romagna",
    "baselineLevel": 2,
    "baselineSource": "PRED",
    "lat": 44.0096671,
    "lng": 12.6521377,
    "notes": "lat/lng to be filled via overrides/geocoding pipeline.",
    "geocodeMeta": {
      "status": "OVERRIDE",
      "source": "GOOGLE_EARTH"
    }
  },
  {
    "id": "BR-RN-RIC-032",
    "name": "Bagni Rina 99",
    "address": "Lungomare Costituzione 2, 47838 Riccione RN, Italia",
    "city": "Riccione",
    "province": "RN",
    "region": "Emilia-Romagna",
    "baselineLevel": 2,
    "baselineSource": "PRED",
    "lat": 44.0094363,
    "lng": 12.6526591,
    "notes": "lat/lng to be filled via overrides/geocoding pipeline.",
    "geocodeMeta": {
      "status": "OVERRIDE",
      "source": "GOOGLE_EARTH"
    }
  },
  {
    "id": "BR-RN-RIC-033",
    "name": "Bagni Carla 98 S.a.s. Di Mazzotti Fabrizio E C.",
    "address": "Lungomare Costituzione 98, 47838 Riccione RN, Italia",
    "city": "Riccione",
    "province": "RN",
    "region": "Emilia-Romagna",
    "baselineLevel": 2,
    "baselineSource": "PRED",
    "lat": 44.0092832,
    "lng": 12.6527965,
    "notes": "lat/lng to be filled via overrides/geocoding pipeline.",
    "geocodeMeta": {
      "status": "OVERRIDE",
      "source": "GOOGLE_EARTH"
    }
  },
  {
    "id": "BR-RN-RIC-034",
    "name": "Spiaggia Riccione Pet Friendly Beach - La Spiaggia delle Donne",
    "address": "Lungomare Costituzione 97, 47838 Riccione RN, Italia",
    "city": "Riccione",
    "province": "RN",
    "region": "Emilia-Romagna",
    "baselineLevel": 2,
    "baselineSource": "PRED",
    "lat": 44.0089554,
    "lng": 12.6532121,
    "notes": "lat/lng to be filled via overrides/geocoding pipeline.",
    "geocodeMeta": {
      "status": "OVERRIDE",
      "source": "GOOGLE_EARTH"
    }
  },
  {
    "id": "BR-RN-RIC-035",
    "name": "Spiaggia 95 Marco - Riccione",
    "address": "Lungomare Costituzione 95, 47838 Riccione RN, Italia",
    "city": "Riccione",
    "province": "RN",
    "region": "Emilia-Romagna",
    "baselineLevel": 2,
    "baselineSource": "PRED",
    "lat": 44.008554,
    "lng": 12.6538523,
    "notes": "lat/lng to be filled via overrides/geocoding pipeline.",
    "geocodeMeta": {
      "status": "OVERRIDE",
      "source": "GOOGLE_EARTH"
    }
  },
  {
    "id": "BR-RN-RIC-036",
    "name": "Spiaggia Battarra & Settimio - 94",
    "address": "Lungomare Costituzione, 47838 Riccione RN, Italia",
    "city": "Riccione",
    "province": "RN",
    "region": "Emilia-Romagna",
    "baselineLevel": 2,
    "baselineSource": "PRED",
    "lat": 44.0078415,
    "lng": 12.6548275,
    "notes": "lat/lng to be filled via overrides/geocoding pipeline.",
    "geocodeMeta": {
      "status": "OVERRIDE",
      "source": "GOOGLE_EARTH"
    }
  },
  {
    "id": "BR-RN-RIC-037",
    "name": "Bagni 92 Luigi e Karin",
    "address": "Lungomare Costituzione, 47838 Riccione RN, Italia",
    "city": "Riccione",
    "province": "RN",
    "region": "Emilia-Romagna",
    "baselineLevel": 2,
    "baselineSource": "PRED",
    "lat": 44.0075944,
    "lng": 12.6552377,
    "notes": "lat/lng to be filled via overrides/geocoding pipeline.",
    "geocodeMeta": {
      "status": "OVERRIDE",
      "source": "GOOGLE_EARTH"
    }
  },
  {
    "id": "BR-RN-RIC-038",
    "name": "Spiaggia 91 Con Piscina",
    "address": "Lungomare Costituzione, 47838 Riccione RN, Italia",
    "city": "Riccione",
    "province": "RN",
    "region": "Emilia-Romagna",
    "baselineLevel": 2,
    "baselineSource": "PRED",
    "lat": 44.0073452,
    "lng": 12.6555166,
    "notes": "lat/lng to be filled via overrides/geocoding pipeline.",
    "geocodeMeta": {
      "status": "OVERRIDE",
      "source": "GOOGLE_EARTH"
    }
  },
  {
    "id": "BR-RN-RIC-039",
    "name": "Spiaggia 90",
    "address": "Piazzale Del Porto 3, 47838 Riccione RN, Italia",
    "city": "Riccione",
    "province": "RN",
    "region": "Emilia-Romagna",
    "baselineLevel": 2,
    "baselineSource": "PRED",
    "lat": 44.0064891,
    "lng": 12.6575679,
    "notes": "lat/lng to be filled via overrides/geocoding pipeline.",
    "geocodeMeta": {
      "status": "OVERRIDE",
      "source": "GOOGLE_EARTH"
    }
  },
  {
    "id": "BR-RN-RIC-040",
    "name": "Spiaggia Le Palme",
    "address": "Lungomare della Libert√†, 47838 Riccione RN, Italia",
    "city": "Riccione",
    "province": "RN",
    "region": "Emilia-Romagna",
    "baselineLevel": 2,
    "baselineSource": "PRED",
    "lat": 44.0063475,
    "lng": 12.6578165,
    "notes": "lat/lng to be filled via overrides/geocoding pipeline.",
    "geocodeMeta": {
      "status": "OVERRIDE",
      "source": "GOOGLE_EARTH"
    }
  },
  {
    "id": "BR-RN-RIC-041",
    "name": "Spiaggia del sole 86-87",
    "address": "Lungomare della Libert√†, 47838 Riccione RN, Italia",
    "city": "Riccione",
    "province": "RN",
    "region": "Emilia-Romagna",
    "baselineLevel": 2,
    "baselineSource": "PRED",
    "lat": 44.0057234,
    "lng": 12.6587219,
    "notes": "lat/lng to be filled via overrides/geocoding pipeline.",
    "geocodeMeta": {
      "status": "OVERRIDE",
      "source": "GOOGLE_EARTH"
    }
  },
  {
    "id": "BR-RN-RIC-042",
    "name": "Bagno Giulia 85",
    "address": "Lungomare della Libert√†, 47838 Riccione RN, Italia",
    "city": "Riccione",
    "province": "RN",
    "region": "Emilia-Romagna",
    "baselineLevel": 2,
    "baselineSource": "PRED",
    "lat": 44.0053102,
    "lng": 12.6590443,
    "notes": "lat/lng to be filled via overrides/geocoding pipeline.",
    "geocodeMeta": {
      "status": "OVERRIDE",
      "source": "GOOGLE_EARTH"
    }
  },
  {
    "id": "BR-RN-RIC-043",
    "name": "Bagno Fabio N. 84",
    "address": "Lungomare della Libert√† 84, 47838 Riccione RN, Italia",
    "city": "Riccione",
    "province": "RN",
    "region": "Emilia-Romagna",
    "baselineLevel": 2,
    "baselineSource": "PRED",
    "lat": 44.0052005,
    "lng": 12.6594534,
    "notes": "lat/lng to be filled via overrides/geocoding pipeline.",
    "geocodeMeta": {
      "status": "OVERRIDE",
      "source": "GOOGLE_EARTH"
    }
  },
  {
    "id": "BR-RN-RIC-044",
    "name": "Bagno Aldo Zona 83",
    "address": "Lungomare della Libert√†, 47838 Riccione RN, Italia",
    "city": "Riccione",
    "province": "RN",
    "region": "Emilia-Romagna",
    "baselineLevel": 2,
    "baselineSource": "PRED",
    "lat": 44.0047454,
    "lng": 12.6599006,
    "notes": "lat/lng to be filled via overrides/geocoding pipeline.",
    "geocodeMeta": {
      "status": "OVERRIDE",
      "source": "GOOGLE_EARTH"
    }
  },
  {
    "id": "BR-RN-RIC-045",
    "name": "Spiaggia 82",
    "address": "Lungomare della Libert√† 82, 47838 Riccione RN, Italia",
    "city": "Riccione",
    "province": "RN",
    "region": "Emilia-Romagna",
    "baselineLevel": 2,
    "baselineSource": "PRED",
    "lat": 44.0043662,
    "lng": 12.6598845,
    "notes": "lat/lng to be filled via overrides/geocoding pipeline.",
    "geocodeMeta": {
      "status": "OVERRIDE",
      "source": "GOOGLE_EARTH"
    }
  },
  {
    "id": "BR-RN-RIC-046",
    "name": "Bagno b.80/b.81 Riccione",
    "address": "Lungomare della Libert√†, 47838 Riccione RN, Italia",
    "city": "Riccione",
    "province": "RN",
    "region": "Emilia-Romagna",
    "baselineLevel": 2,
    "baselineSource": "PRED",
    "lat": 44.004323,
    "lng": 12.6605287,
    "notes": "lat/lng to be filled via overrides/geocoding pipeline.",
    "geocodeMeta": {
      "status": "OVERRIDE",
      "source": "GOOGLE_EARTH"
    }
  },
  {
    "id": "BR-RN-RIC-047",
    "name": "Green Beach 79 Riccione",
    "address": "Lungomare della Libert√† 79, 47838 Riccione RN, Italia",
    "city": "Riccione",
    "province": "RN",
    "region": "Emilia-Romagna",
    "baselineLevel": 2,
    "baselineSource": "PRED",
    "lat": 44.0038844,
    "lng": 12.6609606,
    "notes": "lat/lng to be filled via overrides/geocoding pipeline.",
    "geocodeMeta": {
      "status": "OVERRIDE",
      "source": "GOOGLE_EARTH"
    }
  },
  {
    "id": "BR-RN-RIC-048",
    "name": "Bagni Mauro 78 Riccione Spiaggia",
    "address": "Lungomare della Libert√†, 47838 Riccione RN, Italia",
    "city": "Riccione",
    "province": "RN",
    "region": "Emilia-Romagna",
    "baselineLevel": 2,
    "baselineSource": "PRED",
    "lat": 44.0037572,
    "lng": 12.6612462,
    "notes": "lat/lng to be filled via overrides/geocoding pipeline.",
    "geocodeMeta": {
      "status": "OVERRIDE",
      "source": "GOOGLE_EARTH"
    }
  },
  {
    "id": "BR-RN-RIC-049",
    "name": "Spiaggia libera Columbus",
    "address": "Lungomare della Repubblica 7, 47838 Riccione RN, Italia",
    "city": "Riccione",
    "province": "RN",
    "region": "Emilia-Romagna",
    "baselineLevel": 2,
    "baselineSource": "PRED",
    "lat": 44.0036926,
    "lng": 12.6621951,
    "notes": "lat/lng to be filled via overrides/geocoding pipeline.",
    "geocodeMeta": {
      "status": "OVERRIDE",
      "source": "GOOGLE_EARTH"
    }
  },
  {
    "id": "BR-RN-RIC-050",
    "name": "Spiaggia 76",
    "address": "Lungomare della Repubblica 76, 47838 Riccione RN, Italia",
    "city": "Riccione",
    "province": "RN",
    "region": "Emilia-Romagna",
    "baselineLevel": 2,
    "baselineSource": "PRED",
    "lat": 44.0029088,
    "lng": 12.6629281,
    "notes": "lat/lng to be filled via overrides/geocoding pipeline.",
    "geocodeMeta": {
      "status": "OVERRIDE",
      "source": "GOOGLE_EARTH"
    }
  },
  {
    "id": "BR-RN-RIC-051",
    "name": "Golden Beach 75",
    "address": "Lungomare della Repubblica 75, 47838 Riccione RN, Italia",
    "city": "Riccione",
    "province": "RN",
    "region": "Emilia-Romagna",
    "baselineLevel": 2,
    "baselineSource": "PRED",
    "lat": 44.0026061,
    "lng": 12.6629098,
    "notes": "lat/lng to be filled via overrides/geocoding pipeline.",
    "geocodeMeta": {
      "status": "OVERRIDE",
      "source": "GOOGLE_EARTH"
    }
  },
  {
    "id": "BR-RN-RIC-052",
    "name": "Bagno 74 Zanarini",
    "address": "Lungomare della Repubblica, 47838 Riccione RN, Italia",
    "city": "Riccione",
    "province": "RN",
    "region": "Emilia-Romagna",
    "baselineLevel": 2,
    "baselineSource": "PRED",
    "lat": 44.0024441,
    "lng": 12.6633397,
    "notes": "lat/lng to be filled via overrides/geocoding pipeline.",
    "geocodeMeta": {
      "status": "OVERRIDE",
      "source": "GOOGLE_EARTH"
    }
  },
  {
    "id": "BR-RN-RIC-053",
    "name": "Beach 74 Piccioni Carlo Alberto",
    "address": "Lungomare della Repubblica, 47838 Riccione RN, Italia",
    "city": "Riccione",
    "province": "RN",
    "region": "Emilia-Romagna",
    "baselineLevel": 2,
    "baselineSource": "PRED",
    "lat": 44.0023445,
    "lng": 12.6632789,
    "notes": "lat/lng to be filled via overrides/geocoding pipeline.",
    "geocodeMeta": {
      "status": "OVERRIDE",
      "source": "GOOGLE_EARTH"
    }
  },
  {
    "id": "BR-RN-RIC-054",
    "name": "Spiaggia 73 Riccione",
    "address": "Lungomare della Repubblica, 47838 Riccione RN, Italia",
    "city": "Riccione",
    "province": "RN",
    "region": "Emilia-Romagna",
    "baselineLevel": 2,
    "baselineSource": "PRED",
    "lat": 44.0022666,
    "lng": 12.6636335,
    "notes": "lat/lng to be filled via overrides/geocoding pipeline.",
    "geocodeMeta": {
      "status": "OVERRIDE",
      "source": "GOOGLE_EARTH"
    }
  },
  {
    "id": "BR-RN-RIC-055",
    "name": "Bagni Ivano 72",
    "address": "Lungomare della Repubblica 72, 47838 Riccione RN, Italia",
    "city": "Riccione",
    "province": "RN",
    "region": "Emilia-Romagna",
    "baselineLevel": 2,
    "baselineSource": "PRED",
    "lat": 44.0018817,
    "lng": 12.6639438,
    "notes": "lat/lng to be filled via overrides/geocoding pipeline.",
    "geocodeMeta": {
      "status": "OVERRIDE",
      "source": "GOOGLE_EARTH"
    }
  },
  {
    "id": "BR-RN-RIC-056",
    "name": "Bagno 71",
    "address": "Lungomare della Repubblica, 47838 Riccione RN, Italia",
    "city": "Riccione",
    "province": "RN",
    "region": "Emilia-Romagna",
    "baselineLevel": 2,
    "baselineSource": "PRED",
    "lat": 44.0018002,
    "lng": 12.6641714,
    "notes": "lat/lng to be filled via overrides/geocoding pipeline.",
    "geocodeMeta": {
      "status": "OVERRIDE",
      "source": "GOOGLE_EARTH"
    }
  },
  {
    "id": "BR-RN-RIC-057",
    "name": "Bagno 70",
    "address": "Lungomare della Repubblica 70, 47838 Riccione RN, Italia",
    "city": "Riccione",
    "province": "RN",
    "region": "Emilia-Romagna",
    "baselineLevel": 2,
    "baselineSource": "PRED",
    "lat": 44.0014964,
    "lng": 12.6644756,
    "notes": "lat/lng to be filled via overrides/geocoding pipeline.",
    "geocodeMeta": {
      "status": "OVERRIDE",
      "source": "GOOGLE_EARTH"
    }
  },
  {
    "id": "BR-RN-RIC-058",
    "name": "Bagno 69",
    "address": "Lungomare della Repubblica 72, 47838 Riccione RN, Italia",
    "city": "Riccione",
    "province": "RN",
    "region": "Emilia-Romagna",
    "baselineLevel": 2,
    "baselineSource": "PRED",
    "lat": 44.0013498,
    "lng": 12.6647168,
    "notes": "lat/lng to be filled via overrides/geocoding pipeline.",
    "geocodeMeta": {
      "status": "OVERRIDE",
      "source": "GOOGLE_EARTH"
    }
  },
  {
    "id": "BR-RN-RIC-059",
    "name": "Bagni Ettore 68",
    "address": "Lungomare della Repubblica 68, 47838 Riccione RN, Italia",
    "city": "Riccione",
    "province": "RN",
    "region": "Emilia-Romagna",
    "baselineLevel": 2,
    "baselineSource": "PRED",
    "lat": 44.0011103,
    "lng": 12.6649198,
    "notes": "lat/lng to be filled via overrides/geocoding pipeline.",
    "geocodeMeta": {
      "status": "OVERRIDE",
      "source": "GOOGLE_EARTH"
    }
  },
  {
    "id": "BR-RN-RIC-060",
    "name": "Bagno 67 Vittorio Riccione",
    "address": "Lungomare della Repubblica 66, 47838 Riccione RN, Italia",
    "city": "Riccione",
    "province": "RN",
    "region": "Emilia-Romagna",
    "baselineLevel": 2,
    "baselineSource": "PRED",
    "lat": 44.00101,
    "lng": 12.6654433,
    "notes": "lat/lng to be filled via overrides/geocoding pipeline.",
    "geocodeMeta": {
      "status": "OVERRIDE",
      "source": "GOOGLE_EARTH"
    }
  },
  {
    "id": "BR-RN-RIC-061",
    "name": "Bagno Cesare 66",
    "address": "Lungomare della Repubblica 66, 47838 Riccione RN, Italia",
    "city": "Riccione",
    "province": "RN",
    "region": "Emilia-Romagna",
    "baselineLevel": 2,
    "baselineSource": "PRED",
    "lat": 44.0006068,
    "lng": 12.6657221,
    "notes": "lat/lng to be filled via overrides/geocoding pipeline.",
    "geocodeMeta": {
      "status": "OVERRIDE",
      "source": "GOOGLE_EARTH"
    }
  },
  {
    "id": "BR-RN-RIC-062",
    "name": "Bagni Mario 65",
    "address": "Lungomare della Repubblica 65, 47838 Riccione RN, Italia",
    "city": "Riccione",
    "province": "RN",
    "region": "Emilia-Romagna",
    "baselineLevel": 2,
    "baselineSource": "PRED",
    "lat": 44.0005079,
    "lng": 12.6660754,
    "notes": "lat/lng to be filled via overrides/geocoding pipeline.",
    "geocodeMeta": {
      "status": "OVERRIDE",
      "source": "GOOGLE_EARTH"
    }
  },
  {
    "id": "BR-RN-RIC-063",
    "name": "Bagni Gianni 64 Riccione",
    "address": "Lungomare della Repubblica 64, 47838 Riccione RN, Italia",
    "city": "Riccione",
    "province": "RN",
    "region": "Emilia-Romagna",
    "baselineLevel": 2,
    "baselineSource": "PRED",
    "lat": 44.0001721,
    "lng": 12.6666239,
    "notes": "lat/lng to be filled via overrides/geocoding pipeline.",
    "geocodeMeta": {
      "status": "OVERRIDE",
      "source": "GOOGLE_EARTH"
    }
  },
  {
    "id": "BR-RN-RIC-064",
    "name": "Bagni Speranzino 63",
    "address": "Lungomare della Repubblica 63, 47838 Riccione RN, Italia",
    "city": "Riccione",
    "province": "RN",
    "region": "Emilia-Romagna",
    "baselineLevel": 2,
    "baselineSource": "PRED",
    "lat": 44.0000118,
    "lng": 12.6670066,
    "notes": "lat/lng to be filled via overrides/geocoding pipeline.",
    "geocodeMeta": {
      "status": "OVERRIDE",
      "source": "GOOGLE_EARTH"
    }
  },
  {
    "id": "BR-RN-RIC-065",
    "name": "Spiaggia 62 Sandrino",
    "address": "Lungomare della Repubblica, 47838 Riccione RN, Italia",
    "city": "Riccione",
    "province": "RN",
    "region": "Emilia-Romagna",
    "baselineLevel": 2,
    "baselineSource": "PRED",
    "lat": 43.999544,
    "lng": 12.6673652,
    "notes": "lat/lng to be filled via overrides/geocoding pipeline.",
    "geocodeMeta": {
      "status": "OVERRIDE",
      "source": "GOOGLE_EARTH"
    }
  },
  {
    "id": "BR-RN-RIC-066",
    "name": "Spiaggia 61 Della Rosa",
    "address": "Lungomare della Repubblica 61, 47838 Riccione RN, Italia",
    "city": "Riccione",
    "province": "RN",
    "region": "Emilia-Romagna",
    "baselineLevel": 2,
    "baselineSource": "PRED",
    "lat": 43.9993676,
    "lng": 12.6676782,
    "notes": "lat/lng to be filled via overrides/geocoding pipeline.",
    "geocodeMeta": {
      "status": "OVERRIDE",
      "source": "GOOGLE_EARTH"
    }
  },
  {
    "id": "BR-RN-RIC-067",
    "name": "Spiaggia 60 Bagni Giorgio",
    "address": "Lungomare della Repubblica 60, 47838 Riccione RN, Italia",
    "city": "Riccione",
    "province": "RN",
    "region": "Emilia-Romagna",
    "baselineLevel": 2,
    "baselineSource": "PRED",
    "lat": 43.999001,
    "lng": 12.6680785,
    "notes": "lat/lng to be filled via overrides/geocoding pipeline.",
    "geocodeMeta": {
      "status": "OVERRIDE",
      "source": "GOOGLE_EARTH"
    }
  },
  {
    "id": "BR-RN-RIC-068",
    "name": "Spiaggia 59 - Bagni Cicca",
    "address": "Lungomare della Repubblica, 47838 Riccione RN, Italia",
    "city": "Riccione",
    "province": "RN",
    "region": "Emilia-Romagna",
    "baselineLevel": 2,
    "baselineSource": "PRED",
    "lat": 43.9989392,
    "lng": 12.6683645,
    "notes": "lat/lng to be filled via overrides/geocoding pipeline.",
    "geocodeMeta": {
      "status": "OVERRIDE",
      "source": "GOOGLE_EARTH"
    }
  },
  {
    "id": "BR-RN-RIC-069",
    "name": "Spiaggia 58 - Bagni Leo",
    "address": "Lungomare della Repubblica 58, 47838 Riccione RN, Italia",
    "city": "Riccione",
    "province": "RN",
    "region": "Emilia-Romagna",
    "baselineLevel": 2,
    "baselineSource": "PRED",
    "lat": 43.9987169,
    "lng": 12.6686612,
    "notes": "lat/lng to be filled via overrides/geocoding pipeline.",
    "geocodeMeta": {
      "status": "OVERRIDE",
      "source": "GOOGLE_EARTH"
    }
  },
  {
    "id": "BR-RN-RIC-070",
    "name": "Bagni Massimo Bagno 57 Tonini Massimo",
    "address": "Lungomare della Repubblica 57, 47838 Riccione RN, Italia",
    "city": "Riccione",
    "province": "RN",
    "region": "Emilia-Romagna",
    "baselineLevel": 2,
    "baselineSource": "PRED",
    "lat": 43.9985854,
    "lng": 12.6691079,
    "notes": "lat/lng to be filled via overrides/geocoding pipeline.",
    "geocodeMeta": {
      "status": "OVERRIDE",
      "source": "GOOGLE_EARTH"
    }
  },
  {
    "id": "BR-RN-RIC-071",
    "name": "Spiaggia 56 Riccione",
    "address": "Lungomare della Repubblica 56, 47838 Riccione RN, Italia",
    "city": "Riccione",
    "province": "RN",
    "region": "Emilia-Romagna",
    "baselineLevel": 2,
    "baselineSource": "PRED",
    "lat": 43.9984214,
    "lng": 12.6692458,
    "notes": "lat/lng to be filled via overrides/geocoding pipeline.",
    "geocodeMeta": {
      "status": "OVERRIDE",
      "source": "GOOGLE_EARTH"
    }
  },
  {
    "id": "BR-RN-RIC-072",
    "name": "Bagno 55 Mulazzani - Riccione",
    "address": "Lungomare della Repubblica, 47838 Riccione RN, Italia",
    "city": "Riccione",
    "province": "RN",
    "region": "Emilia-Romagna",
    "baselineLevel": 2,
    "baselineSource": "PRED",
    "lat": 43.9983049,
    "lng": 12.6695985,
    "notes": "lat/lng to be filled via overrides/geocoding pipeline.",
    "geocodeMeta": {
      "status": "OVERRIDE",
      "source": "GOOGLE_EARTH"
    }
  },
  {
    "id": "BR-RN-RIC-073",
    "name": "Spiaggia 54 Riccione - Bagni Nino e Nando",
    "address": "Lungomare della Repubblica, 47838 Riccione RN, Italia",
    "city": "Riccione",
    "province": "RN",
    "region": "Emilia-Romagna",
    "baselineLevel": 2,
    "baselineSource": "PRED",
    "lat": 43.9979452,
    "lng": 12.6697904,
    "notes": "lat/lng to be filled via overrides/geocoding pipeline.",
    "geocodeMeta": {
      "status": "OVERRIDE",
      "source": "GOOGLE_EARTH"
    }
  },
  {
    "id": "BR-RN-RIC-074",
    "name": "Spiaggia 53 Bagni Luciano E Renzo",
    "address": "Lungomare della Repubblica 53, 47838 Riccione RN, Italia",
    "city": "Riccione",
    "province": "RN",
    "region": "Emilia-Romagna",
    "baselineLevel": 2,
    "baselineSource": "PRED",
    "lat": 43.9976875,
    "lng": 12.6702197,
    "notes": "lat/lng to be filled via overrides/geocoding pipeline.",
    "geocodeMeta": {
      "status": "OVERRIDE",
      "source": "GOOGLE_EARTH"
    }
  },
  {
    "id": "BR-RN-RIC-075",
    "name": "Area 52 Papaya Beach Village Riccione",
    "address": "Lungomare della Repubblica, 47838 Riccione RN, Italia",
    "city": "Riccione",
    "province": "RN",
    "region": "Emilia-Romagna",
    "baselineLevel": 2,
    "baselineSource": "PRED",
    "lat": 43.9975339,
    "lng": 12.670665,
    "notes": "lat/lng to be filled via overrides/geocoding pipeline.",
    "geocodeMeta": {
      "status": "OVERRIDE",
      "source": "GOOGLE_EARTH"
    }
  },
  {
    "id": "BR-RN-RIC-076",
    "name": "Spiaggia Libera Piazzale San Martino",
    "address": "Piazzale S. Martino 1, 47838 Riccione RN, Italia",
    "city": "Riccione",
    "province": "RN",
    "region": "Emilia-Romagna",
    "baselineLevel": 2,
    "baselineSource": "PRED",
    "lat": 43.9972528,
    "lng": 12.6712864,
    "notes": "lat/lng to be filled via overrides/geocoding pipeline.",
    "geocodeMeta": {
      "status": "OVERRIDE",
      "source": "GOOGLE_EARTH"
    }
  },
  {
    "id": "BR-RN-RIC-077",
    "name": "Spiaggia 51",
    "address": "47838 Riccione RN, Italia",
    "city": "Riccione",
    "province": "RN",
    "region": "Emilia-Romagna",
    "baselineLevel": 2,
    "baselineSource": "PRED",
    "lat": 43.9967711,
    "lng": 12.6716292,
    "notes": "lat/lng to be filled via overrides/geocoding pipeline.",
    "geocodeMeta": {
      "status": "OVERRIDE",
      "source": "GOOGLE_EARTH"
    }
  },
  {
    "id": "BR-RN-RIC-078",
    "name": "Spiaggia 50 Cesare",
    "address": "Lungomare della Repubblica 50, 47838 Riccione RN, Italia",
    "city": "Riccione",
    "province": "RN",
    "region": "Emilia-Romagna",
    "baselineLevel": 2,
    "baselineSource": "PRED",
    "lat": 43.9965751,
    "lng": 12.6720486,
    "notes": "lat/lng to be filled via overrides/geocoding pipeline.",
    "geocodeMeta": {
      "status": "OVERRIDE",
      "source": "GOOGLE_EARTH"
    }
  },
  {
    "id": "BR-RN-RIC-079",
    "name": "Bagni 48 Bice Riccione",
    "address": "47838 Riccione RN, Italia",
    "city": "Riccione",
    "province": "RN",
    "region": "Emilia-Romagna",
    "baselineLevel": 2,
    "baselineSource": "PRED",
    "lat": 43.9962196,
    "lng": 12.6728172,
    "notes": "lat/lng to be filled via overrides/geocoding pipeline.",
    "geocodeMeta": {
      "status": "OVERRIDE",
      "source": "GOOGLE_EARTH"
    }
  },
  {
    "id": "BR-RN-RIC-080",
    "name": "Spiaggia 46/47",
    "address": "Piazzale Marinai d'Italia, 47838 Riccione RN",
    "city": "Riccione",
    "province": "RN",
    "region": "Emilia-Romagna",
    "baselineLevel": 2,
    "baselineSource": "PRED",
    "lat": 43.9957733,
    "lng": 12.6730508,
    "notes": "lat/lng to be filled via overrides/geocoding pipeline.",
    "geocodeMeta": {
      "status": "OVERRIDE",
      "source": "GOOGLE_EARTH"
    }
  },
  {
    "id": "BR-RN-RIC-081",
    "name": "Flamingo Beach",
    "address": "Via Torino 7, 47838 Riccione RN, Italia",
    "city": "Riccione",
    "province": "RN",
    "region": "Emilia-Romagna",
    "baselineLevel": 2,
    "baselineSource": "PRED",
    "lat": 43.9954468,
    "lng": 12.6739463,
    "notes": "lat/lng to be filled via overrides/geocoding pipeline.",
    "geocodeMeta": {
      "status": "OVERRIDE",
      "source": "GOOGLE_EARTH"
    }
  },
  {
    "id": "BR-RN-RIC-082",
    "name": "Lab Beach 44",
    "address": "Via Torino, 47838 Riccione RN, Italia",
    "city": "Riccione",
    "province": "RN",
    "region": "Emilia-Romagna",
    "baselineLevel": 2,
    "baselineSource": "PRED",
    "lat": 43.9951636,
    "lng": 12.6741822,
    "notes": "lat/lng to be filled via overrides/geocoding pipeline.",
    "geocodeMeta": {
      "status": "OVERRIDE",
      "source": "GOOGLE_EARTH"
    }
  },
  {
    "id": "BR-RN-RIC-083",
    "name": "Spiaggia libera",
    "address": "Via Michelangelo 13, 47838 Riccione RN, Italia",
    "city": "Riccione",
    "province": "RN",
    "region": "Emilia-Romagna",
    "baselineLevel": 2,
    "baselineSource": "PRED",
    "lat": 43.9948343,
    "lng": 12.6744015,
    "notes": "lat/lng to be filled via overrides/geocoding pipeline.",
    "geocodeMeta": {
      "status": "OVERRIDE",
      "source": "GOOGLE_EARTH"
    }
  },
  {
    "id": "BR-RN-RIC-084",
    "name": "Spiaggia 42",
    "address": "Via Michelangelo 13, 47838 Riccione RN, Italia",
    "city": "Riccione",
    "province": "RN",
    "region": "Emilia-Romagna",
    "baselineLevel": 2,
    "baselineSource": "PRED",
    "lat": 43.9947183,
    "lng": 12.6747562,
    "notes": "lat/lng to be filled via overrides/geocoding pipeline.",
    "geocodeMeta": {
      "status": "OVERRIDE",
      "source": "GOOGLE_EARTH"
    }
  },
  {
    "id": "BR-RN-RIC-085",
    "name": "Bagno N. 41 Di Severino E Silvia",
    "address": "Via Torino 16, 47838 Riccione RN, Italia",
    "city": "Riccione",
    "province": "RN",
    "region": "Emilia-Romagna",
    "baselineLevel": 2,
    "baselineSource": "PRED",
    "lat": 43.9945333,
    "lng": 12.6750839,
    "notes": "lat/lng to be filled via overrides/geocoding pipeline.",
    "geocodeMeta": {
      "status": "OVERRIDE",
      "source": "GOOGLE_EARTH"
    }
  },
  {
    "id": "BR-RN-RIC-086",
    "name": "Spiaggia libera",
    "address": "Via Torino 22A, 47838 Riccione RN, Italia",
    "city": "Riccione",
    "province": "RN",
    "region": "Emilia-Romagna",
    "baselineLevel": 2,
    "baselineSource": "PRED",
    "lat": 43.9942899,
    "lng": 12.6755522,
    "notes": "lat/lng to be filled via overrides/geocoding pipeline.",
    "geocodeMeta": {
      "status": "OVERRIDE",
      "source": "GOOGLE_EARTH"
    }
  },
  {
    "id": "BR-RN-RIC-087",
    "name": "Spiaggia 39 Maci beach riccione",
    "address": "Via Torino 22A, 47838 Riccione RN, Italia",
    "city": "Riccione",
    "province": "RN",
    "region": "Emilia-Romagna",
    "baselineLevel": 2,
    "baselineSource": "PRED",
    "lat": 43.9940586,
    "lng": 12.6757795,
    "notes": "lat/lng to be filled via overrides/geocoding pipeline.",
    "geocodeMeta": {
      "status": "OVERRIDE",
      "source": "GOOGLE_EARTH"
    }
  },
  {
    "id": "BR-RN-RIC-088",
    "name": "Bagno 38 - Anna & Marcello",
    "address": "Via Torino, 47838 Riccione RN, Italia",
    "city": "Riccione",
    "province": "RN",
    "region": "Emilia-Romagna",
    "baselineLevel": 2,
    "baselineSource": "PRED",
    "lat": 43.9939155,
    "lng": 12.6761589,
    "notes": "lat/lng to be filled via overrides/geocoding pipeline.",
    "geocodeMeta": {
      "status": "OVERRIDE",
      "source": "GOOGLE_EARTH"
    }
  },
  {
    "id": "BR-RN-RIC-089",
    "name": "Spiaggia 38 Riccione Playa Denis",
    "address": "Via Torino, 47838 Riccione RN, Italia",
    "city": "Riccione",
    "province": "RN",
    "region": "Emilia-Romagna",
    "baselineLevel": 2,
    "baselineSource": "PRED",
    "lat": 43.993967,
    "lng": 12.6764432,
    "notes": "lat/lng to be filled via overrides/geocoding pipeline.",
    "geocodeMeta": {
      "status": "OVERRIDE",
      "source": "GOOGLE_EARTH"
    }
  },
  {
    "id": "BR-RN-RIC-090",
    "name": "Bagno N 36",
    "address": "Via Torino 16, 47838 Riccione RN, Italia",
    "city": "Riccione",
    "province": "RN",
    "region": "Emilia-Romagna",
    "baselineLevel": 2,
    "baselineSource": "PRED",
    "lat": 43.9936489,
    "lng": 12.6765081,
    "notes": "lat/lng to be filled via overrides/geocoding pipeline.",
    "geocodeMeta": {
      "status": "OVERRIDE",
      "source": "GOOGLE_EARTH"
    }
  },
  {
    "id": "BR-RN-RIC-091",
    "name": "Nona Beach 35",
    "address": "Via Torino, 47838 Riccione RN, Italia",
    "city": "Riccione",
    "province": "RN",
    "region": "Emilia-Romagna",
    "baselineLevel": 2,
    "baselineSource": "PRED",
    "lat": 43.9933305,
    "lng": 12.6773149,
    "notes": "lat/lng to be filled via overrides/geocoding pipeline.",
    "geocodeMeta": {
      "status": "OVERRIDE",
      "source": "GOOGLE_EARTH"
    }
  },
  {
    "id": "BR-RN-RIC-092",
    "name": "Bagni Mario 34 Riccione",
    "address": "Via Torino 34, 47838 Riccione RN, Italia",
    "city": "Riccione",
    "province": "RN",
    "region": "Emilia-Romagna",
    "baselineLevel": 2,
    "baselineSource": "PRED",
    "lat": 43.9928855,
    "lng": 12.6776809,
    "notes": "lat/lng to be filled via overrides/geocoding pipeline.",
    "geocodeMeta": {
      "status": "OVERRIDE",
      "source": "GOOGLE_EARTH"
    }
  },
  {
    "id": "BR-RN-RIC-093",
    "name": "Spiaggia 32 Riccione",
    "address": "Via Torino 32, 47838 Riccione RN, Italia",
    "city": "Riccione",
    "province": "RN",
    "region": "Emilia-Romagna",
    "baselineLevel": 2,
    "baselineSource": "PRED",
    "lat": 43.9926458,
    "lng": 12.6782192,
    "notes": "lat/lng to be filled via overrides/geocoding pipeline.",
    "geocodeMeta": {
      "status": "OVERRIDE",
      "source": "GOOGLE_EARTH"
    }
  },
  {
    "id": "BR-RN-RIC-094",
    "name": "Kiki Beach",
    "address": "Viale Benvenuto Cellini 29, 47838 Riccione RN, Italia",
    "city": "Riccione",
    "province": "RN",
    "region": "Emilia-Romagna",
    "baselineLevel": 2,
    "baselineSource": "PRED",
    "lat": 43.9923964,
    "lng": 12.6787968,
    "notes": "lat/lng to be filled via overrides/geocoding pipeline.",
    "geocodeMeta": {
      "status": "OVERRIDE",
      "source": "GOOGLE_EARTH"
    }
  },
  {
    "id": "BR-RN-RIC-095",
    "name": "Spiaggia 28 Riccione",
    "address": "Via Torino 28, 47838 Riccione RN, Italia",
    "city": "Riccione",
    "province": "RN",
    "region": "Emilia-Romagna",
    "baselineLevel": 2,
    "baselineSource": "PRED",
    "lat": 43.9916795,
    "lng": 12.6791634,
    "notes": "lat/lng to be filled via overrides/geocoding pipeline.",
    "geocodeMeta": {
      "status": "OVERRIDE",
      "source": "GOOGLE_EARTH"
    }
  },
  {
    "id": "BR-RN-RIC-096",
    "name": "Spiaggia 27 Riccione",
    "address": "Via Torino 51, 47838 Riccione RN, Italia",
    "city": "Riccione",
    "province": "RN",
    "region": "Emilia-Romagna",
    "baselineLevel": 2,
    "baselineSource": "PRED",
    "lat": 43.9914357,
    "lng": 12.6795718,
    "notes": "lat/lng to be filled via overrides/geocoding pipeline.",
    "geocodeMeta": {
      "status": "OVERRIDE",
      "source": "GOOGLE_EARTH"
    }
  },
  {
    "id": "BR-RN-RIC-097",
    "name": "Bagni 26 Giancarlo",
    "address": "Via Torino 43, 47838 Riccione RN, Italia",
    "city": "Riccione",
    "province": "RN",
    "region": "Emilia-Romagna",
    "baselineLevel": 2,
    "baselineSource": "PRED",
    "lat": 43.9914046,
    "lng": 12.6798089,
    "notes": "lat/lng to be filled via overrides/geocoding pipeline.",
    "geocodeMeta": {
      "status": "OVERRIDE",
      "source": "GOOGLE_EARTH"
    }
  },
  {
    "id": "BR-RN-RIC-098",
    "name": "Bagno 25 - La Spiaggia 25- Coop.Adriatica",
    "address": "Via Torino, 47838 Riccione RN, Italia",
    "city": "Riccione",
    "province": "RN",
    "region": "Emilia-Romagna",
    "baselineLevel": 2,
    "baselineSource": "PRED",
    "lat": 43.9911132,
    "lng": 12.6802362,
    "notes": "lat/lng to be filled via overrides/geocoding pipeline.",
    "geocodeMeta": {
      "status": "OVERRIDE",
      "source": "GOOGLE_EARTH"
    }
  },
  {
    "id": "BR-RN-RIC-099",
    "name": "Spiaggia 23 Riccione - Bagni Tonino",
    "address": "Via Torino 48, 47838 Bagni 23 RN, Italia",
    "city": "Bagni 23",
    "province": "RN",
    "region": "Emilia-Romagna",
    "baselineLevel": 2,
    "baselineSource": "PRED",
    "lat": 43.9908599,
    "lng": 12.6811523,
    "notes": "lat/lng to be filled via overrides/geocoding pipeline.",
    "geocodeMeta": {
      "status": "OVERRIDE",
      "source": "GOOGLE_EARTH"
    }
  },
  {
    "id": "BR-RN-RIC-100",
    "name": "Bahia Antigua Spiaggia 20",
    "address": "Via Torino, 47838 Riccione RN, Italia",
    "city": "Riccione",
    "province": "RN",
    "region": "Emilia-Romagna",
    "baselineLevel": 2,
    "baselineSource": "PRED",
    "lat": 43.9903125,
    "lng": 12.6819447,
    "notes": "lat/lng to be filled via overrides/geocoding pipeline.",
    "geocodeMeta": {
      "status": "OVERRIDE",
      "source": "GOOGLE_EARTH"
    }
  },
  {
    "id": "BR-RN-RIC-101",
    "name": "Fontanelle Beach Bagno 19",
    "address": "Via Torino 5, 47838 Riccione RN, Italia",
    "city": "Riccione",
    "province": "RN",
    "region": "Emilia-Romagna",
    "baselineLevel": 2,
    "baselineSource": "PRED",
    "lat": 43.9900506,
    "lng": 12.6822008,
    "notes": "lat/lng to be filled via overrides/geocoding pipeline.",
    "geocodeMeta": {
      "status": "OVERRIDE",
      "source": "GOOGLE_EARTH"
    }
  },
  {
    "id": "BR-RN-RIC-102",
    "name": "Pedra del Sol Bagno 18",
    "address": "Via Torino 55, 47838 Riccione RN, Italia",
    "city": "Riccione",
    "province": "RN",
    "region": "Emilia-Romagna",
    "baselineLevel": 2,
    "baselineSource": "PRED",
    "lat": 43.9897244,
    "lng": 12.6825938,
    "notes": "lat/lng to be filled via overrides/geocoding pipeline.",
    "geocodeMeta": {
      "status": "OVERRIDE",
      "source": "GOOGLE_EARTH"
    }
  },
  {
    "id": "BR-RN-RIC-103",
    "name": "Mario's bagno 17",
    "address": "Via Torino 61, 47838 Riccione RN, Italia",
    "city": "Riccione",
    "province": "RN",
    "region": "Emilia-Romagna",
    "baselineLevel": 2,
    "baselineSource": "PRED",
    "lat": 43.989574,
    "lng": 12.6833212,
    "notes": "lat/lng to be filled via overrides/geocoding pipeline.",
    "geocodeMeta": {
      "status": "OVERRIDE",
      "source": "GOOGLE_EARTH"
    }
  },
  {
    "id": "BR-RN-RIC-104",
    "name": "Bagno Guerrino n.16",
    "address": "Via Torino, 47838 Riccione RN, Italia",
    "city": "Riccione",
    "province": "RN",
    "region": "Emilia-Romagna",
    "baselineLevel": 2,
    "baselineSource": "PRED",
    "lat": 43.9893646,
    "lng": 12.6839075,
    "notes": "lat/lng to be filled via overrides/geocoding pipeline.",
    "geocodeMeta": {
      "status": "OVERRIDE",
      "source": "GOOGLE_EARTH"
    }
  },
  {
    "id": "BR-RN-RIC-105",
    "name": "Bagni 12 Luca Riccione",
    "address": "Via Torino, 47838 Riccione RN, Italia",
    "city": "Riccione",
    "province": "RN",
    "region": "Emilia-Romagna",
    "baselineLevel": 2,
    "baselineSource": "PRED",
    "lat": 43.9878773,
    "lng": 12.6851504,
    "notes": "lat/lng to be filled via overrides/geocoding pipeline.",
    "geocodeMeta": {
      "status": "OVERRIDE",
      "source": "GOOGLE_EARTH"
    }
  },
  {
    "id": "BR-RN-RIC-106",
    "name": "Spiaggia Libera",
    "address": "Via Torino 81, 47838 Riccione RN, Italia",
    "city": "Riccione",
    "province": "RN",
    "region": "Emilia-Romagna",
    "baselineLevel": 2,
    "baselineSource": "PRED",
    "lat": 43.9869621,
    "lng": 12.6866291,
    "notes": "lat/lng to be filled via overrides/geocoding pipeline.",
    "geocodeMeta": {
      "status": "OVERRIDE",
      "source": "GOOGLE_EARTH"
    }
  },
  {
    "id": "BR-RN-RIC-107",
    "name": "Zona Spiaggia 2 Riccione Cesare & Beach Bar DUE",
    "address": "Via Torino 91, 47838 Riccione RN, Italia",
    "city": "Riccione",
    "province": "RN",
    "region": "Emilia-Romagna",
    "baselineLevel": 2,
    "baselineSource": "PRED",
    "lat": 43.9861588,
    "lng": 12.6881847,
    "notes": "lat/lng to be filled via overrides/geocoding pipeline.",
    "geocodeMeta": {
      "status": "OVERRIDE",
      "source": "GOOGLE_EARTH"
    }
  },
  {
    "id": "BR-RN-RIC-108",
    "name": "Spiaggia Zona 3 Riccione",
    "address": "Via Torino, 47838 Riccione RN, Italia",
    "city": "Riccione",
    "province": "RN",
    "region": "Emilia-Romagna",
    "baselineLevel": 2,
    "baselineSource": "PRED",
    "lat": 43.9863501,
    "lng": 12.6877799,
    "notes": "lat/lng to be filled via overrides/geocoding pipeline.",
    "geocodeMeta": {
      "status": "OVERRIDE",
      "source": "GOOGLE_EARTH"
    }
  },
  {
    "id": "BR-RN-RIC-109",
    "name": "Zona 4 Riccione",
    "address": "Via Torino, 47838 Riccione RN, Italia",
    "city": "Riccione",
    "province": "RN",
    "region": "Emilia-Romagna",
    "baselineLevel": 2,
    "baselineSource": "PRED",
    "lat": 43.9865735,
    "lng": 12.6874308,
    "notes": "lat/lng to be filled via overrides/geocoding pipeline.",
    "geocodeMeta": {
      "status": "OVERRIDE",
      "source": "GOOGLE_EARTH"
    }
  },
  {
    "id": "BR-RN-RIC-110",
    "name": "Bagni Mario Z.5",
    "address": "Via Torino 81, 47838 Riccione RN, Italia",
    "city": "Riccione",
    "province": "RN",
    "region": "Emilia-Romagna",
    "baselineLevel": 2,
    "baselineSource": "PRED",
    "lat": 43.9867222,
    "lng": 12.686985,
    "notes": "lat/lng to be filled via overrides/geocoding pipeline.",
    "geocodeMeta": {
      "status": "OVERRIDE",
      "source": "GOOGLE_EARTH"
    }
  }
]