id,name,address,city,province,region,lat,lng,baselineLevel,baselineSource,notes
BR-RN-001,Bagno Uno,"Lungomare Claudio Tintori 2, 47921 Rimini RN, Italia",Rimini,RN,Emilia-Romagna,44.0762395,12.5760479,2,PRED,lat/lng to be filled via geocoding script (Nominatim) before importing into app.
BR-RN-002,Prime Spiagge bagni 5.6.7,"Lungomare Claudio Tintori 10, 47921 Rimini RN, Italia",Rimini,RN,Emilia-Romagna,44.074598,12.5770995,2,PRED,lat/lng to be filled via geocoding script (Nominatim) before importing into app.
BR-RN-003,Bagno N. 7 Alan Di G.A.E. Di Iaci Gaspare E C. Snc,"Lungomare Claudio Tintori 15, 47921 Rimini RN, Italia",Rimini,RN,Emilia-Romagna,44.0744934,12.5775252,2,PRED,lat/lng to be filled via geocoding script (Nominatim) before importing into app.
BR-RN-004,Beach 8 Luciano - Centro Nautico,"Lungomare Claudio Tintori 12, 47921 Rimini RN, Italia",Rimini,RN,Emilia-Romagna,44.0740137,12.5777146,2,PRED,lat/lng to be filled via geocoding script (Nominatim) before importing into app.
BR-RN-005,La Spiaggia del Grand Hotel Rimini,"Lungomare Claudio Tintori 12, 47921 Rimini RN, Italia",Rimini,RN,Emilia-Romagna,44.0737541,12.578315,2,PRED,lat/lng to be filled via geocoding script (Nominatim) before importing into app.
BR-RN-006,Bagno 9 Mauro,"Lungomare Claudio Tintori, 47921 Rimini RN, Italia",Rimini,RN,Emilia-Romagna,44.073298,12.5789202,2,PRED,lat/lng to be filled via geocoding script (Nominatim) before importing into app.
BR-RN-007,Bagno delle Rose 10,"Lungomare Claudio Tintori 16, 47921 Rimini RN, Italia",Rimini,RN,Emilia-Romagna,44.0729656,12.5791241,2,PRED,lat/lng to be filled via geocoding script (Nominatim) before importing into app.
BR-RN-008,Bagno 12 Azzurro,"Lungomare Claudio Tintori 18, 47921 Rimini RN, Italia",Rimini,RN,Emilia-Romagna,44.0721177,12.5787776,2,PRED,lat/lng to be filled via geocoding script (Nominatim) before importing into app.
BR-RN-009,Bagno 14 B. L'Amarissimo,"Lungomare Claudio Tintori 20, 47921 Rimini RN, Italia",Rimini,RN,Emilia-Romagna,44.0719663,12.5798659,2,PRED,lat/lng to be filled via geocoding script (Nominatim) before importing into app.
BR-RN-010,Bagno 15 Oasi,"Lungomare Claudio Tintori, 47921 Rimini RN, Italia",Rimini,RN,Emilia-Romagna,44.0716993,12.5801758,2,PRED,lat/lng to be filled via geocoding script (Nominatim) before importing into app.
BR-RN-011,Bagno 16 Giorgio,"Lungomare Claudio Tintori, 47921 Rimini RN, Italia",Rimini,RN,Emilia-Romagna,44.0713832,12.5804296,2,PRED,lat/lng to be filled via geocoding script (Nominatim) before importing into app.
BR-RN-012,Bagno 17 Rimini,"Lungomare Claudio Tintori 22A, 47921 Rimini RN, Italia",Rimini,RN,Emilia-Romagna,44.0711716,12.5805854,2,PRED,lat/lng to be filled via geocoding script (Nominatim) before importing into app.
BR-RN-013,Bagno 18 Attilio,"Lungomare Claudio Tintori 24, 47921 Rimini RN, Italia",Rimini,RN,Emilia-Romagna,44.0708861,12.5808477,2,PRED,lat/lng to be filled via geocoding script (Nominatim) before importing into app.
BR-RN-014,Bagno 19 Gastone,"Lungomare Claudio Tintori, 47921 Rimini RN, Italia",Rimini,RN,Emilia-Romagna,44.0706143,12.5809691,2,PRED,lat/lng to be filled via geocoding script (Nominatim) before importing into app.
BR-RN-015,Bagno 20 Arcobaleno,"Lungomare Claudio Tintori 26, 47921 Rimini RN, Italia",Rimini,RN,Emilia-Romagna,44.0703086,12.581347,2,PRED,lat/lng to be filled via geocoding script (Nominatim) before importing into app.
BR-RN-016,Bagni 21 Sirena Beach,"Lungomare Claudio Tintori 21, 47921 Rimini RN, Italia",Rimini,RN,Emilia-Romagna,44.0698353,12.5808313,2,PRED,lat/lng to be filled via geocoding script (Nominatim) before importing into app.
BR-RN-017,Bagni 23 Sirena Beach,"Lungomare Claudio Tintori 23/C, 47921 Rimini RN, Italia",Rimini,RN,Emilia-Romagna,44.0697332,12.5817902,2,PRED,lat/lng to be filled via geocoding script (Nominatim) before importing into app.
BR-RN-018,Bagno 24 Rimini,"Lungomare Claudio Tintori 28, 47921 Rimini RN, Italia",Rimini,RN,Emilia-Romagna,44.0694947,12.5820021,2,PRED,lat/lng to be filled via geocoding script (Nominatim) before importing into app.
BR-RN-019,Bagno Aldo 25,"Lungomare Claudio Tintori, 47921 Rimini RN, Italia",Rimini,RN,Emilia-Romagna,44.0692003,12.5821928,2,PRED,lat/lng to be filled via geocoding script (Nominatim) before importing into app.
BR-RN-020,Bagno Tiki 26 Rimini,"Lungomare Claudio Tintori 30/A, 47921 Rimini RN, Italia",Rimini,RN,Emilia-Romagna,44.068857,12.5825674,2,PRED,lat/lng to be filled via geocoding script (Nominatim) before importing into app.
BR-RN-021,La Community 27,"Lungomare Claudio Tintori 32A, 47921 Rimini RN, Italia",Rimini,RN,Emilia-Romagna,44.0685788,12.5828138,2,PRED,lat/lng to be filled via geocoding script (Nominatim) before importing into app.
BR-RN-022,Bagno 28A Belvedere,"Lungomare Claudio Tintori 34B, 47921 Rimini RN, Italia",Rimini,RN,Emilia-Romagna,44.067695,12.5824881,2,PRED,lat/lng to be filled via geocoding script (Nominatim) before importing into app.
BR-RN-024,Bagno 28 Nettuno Beach,"Lungomare Claudio Tintori 34/a, 47921 Rimini RN, Italia",Rimini,RN,Emilia-Romagna,44.0677881,12.5837586,2,PRED,lat/lng to be filled via geocoding script (Nominatim) before importing into app.
BR-RN-023,Bagno Nettuno,"Lungomare Augusto Murri 2, 47921 Rimini RN, Italia",Rimini,RN,Emilia-Romagna,44.0678353,12.5833583,2,PRED,lat/lng to be filled via geocoding script (Nominatim) before importing into app.
BR-RN-025,Spiaggia 29 Rimini,"Lungomare Augusto Murri 4, 47921 Rimini RN, Italia",Rimini,RN,Emilia-Romagna,44.0674345,12.5839557,2,PRED,lat/lng to be filled via geocoding script (Nominatim) before importing into app.
BR-RN-026,Bagno 30 Marino,"Lungomare Augusto Murri 2/C, 47921 Rimini RN, Italia",Rimini,RN,Emilia-Romagna,44.0671748,12.5841754,2,PRED,lat/lng to be filled via geocoding script (Nominatim) before importing into app.
BR-RN-027,La Dolce Vita 34 Rimini,"Lungomare Augusto Murri 6, 47900 Rimini RN, Italia",Rimini,RN,Emilia-Romagna,44.0662101,12.5850858,2,PRED,lat/lng to be filled via geocoding script (Nominatim) before importing into app.
BR-RN-028,Adriatic Village - Beach 35,"Lungomare Augusto Murri 6/B, 47921 Rimini RN, Italia",Rimini,RN,Emilia-Romagna,44.0658508,12.5855376,2,PRED,lat/lng to be filled via geocoding script (Nominatim) before importing into app.
BR-RN-029,Adriatic Village - Beach 36,"Lungomare Augusto Murri 8, 47921 Rimini RN, Italia",Rimini,RN,Emilia-Romagna,44.0656511,12.5857297,2,PRED,lat/lng to be filled via geocoding script (Nominatim) before importing into app.
BR-RN-030,Adriatic Village - Beach 37,"Lungomare Augusto Murri 8/ A, 47921 Rimini RN, Italia",Rimini,RN,Emilia-Romagna,44.0654179,12.5859644,2,PRED,lat/lng to be filled via geocoding script (Nominatim) before importing into app.
BR-RN-031,Bagno 38 Marco,"Lungomare Augusto Murri 10A, 47921 Rimini RN, Italia",Rimini,RN,Emilia-Romagna,44.0651409,12.5862333,2,PRED,lat/lng to be filled via geocoding script (Nominatim) before importing into app.
BR-RN-032,Bagno 39 Carlo,"Lungomare Augusto Murri, 47921 Rimini RN, Italia",Rimini,RN,Emilia-Romagna,44.0648833,12.5864854,2,PRED,lat/lng to be filled via geocoding script (Nominatim) before importing into app.
BR-RN-033,Bagno Matteo 40 Sud,"Lungomare Augusto Murri 12, 47921 Rimini RN, Italia",Rimini,RN,Emilia-Romagna,44.0646549,12.5867603,2,PRED,lat/lng to be filled via geocoding script (Nominatim) before importing into app.
BR-RN-034,Bagno 41 Lucio,"Lungomare Augusto Murri 14, 47900 Rimini RN, Italia",Rimini,RN,Emilia-Romagna,44.0642499,12.5871086,2,PRED,lat/lng to be filled via geocoding script (Nominatim) before importing into app.
BR-RN-035,Papaya Beach Bagno 42,"Lungomare Augusto Murri 16, 47921 Rimini RN, Italia",Rimini,RN,Emilia-Romagna,44.0640029,12.5874147,2,PRED,lat/lng to be filled via geocoding script (Nominatim) before importing into app.
BR-RN-036,Bagno 43 - Bagno onda,"Lungomare Augusto Murri, 47921 Rimini RN, Italia",Rimini,RN,Emilia-Romagna,44.06367,12.5877222,2,PRED,lat/lng to be filled via geocoding script (Nominatim) before importing into app.
BR-RN-037,Bagno 44 Pino,"Lungomare Augusto Murri 18/a, 47900 Rimini RN, Italia",Rimini,RN,Emilia-Romagna,44.0634207,12.5879543,2,PRED,lat/lng to be filled via geocoding script (Nominatim) before importing into app.
BR-RN-038,L'Altra Spiaggia 45,"Lungomare Augusto Murri 24, 47921 Rimini RN, Italia",Rimini,RN,Emilia-Romagna,44.063128,12.5882439,2,PRED,lat/lng to be filled via geocoding script (Nominatim) before importing into app.
BR-RN-039,Bagno 46 Rimini,"Lungomare Augusto Murri 20/A, 47921 Rimini RN, Italia",Rimini,RN,Emilia-Romagna,44.0629261,12.5884017,2,PRED,lat/lng to be filled via geocoding script (Nominatim) before importing into app.
BR-RN-040,Le Spiagge Rimini,"Lungomare Augusto Murri 32, 47921 Rimini RN, Italia",Rimini,RN,Emilia-Romagna,44.0625262,12.5883604,2,PRED,lat/lng to be filled via geocoding script (Nominatim) before importing into app.
BR-RN-041,Bagno 48,"Lungomare Augusto Murri 24a, 47921 Rimini RN, Italia",Rimini,RN,Emilia-Romagna,44.0623374,12.5890078,2,PRED,lat/lng to be filled via geocoding script (Nominatim) before importing into app.
BR-RN-042,Bagno 50 - Le Spiagge Rimini,"Lungomare Augusto Murri 26/B, 47921 Rimini RN, Italia",Rimini,RN,Emilia-Romagna,44.0617875,12.5895358,2,PRED,lat/lng to be filled via geocoding script (Nominatim) before importing into app.
BR-RN-043,Bagno 51,"Lungomare Augusto Murri, 47921 Rimini RN, Italia",Rimini,RN,Emilia-Romagna,44.0615217,12.5898063,2,PRED,lat/lng to be filled via geocoding script (Nominatim) before importing into app.
BR-RN-044,Bagno 52 - Peppo Fantasy Beach,"Lungomare Augusto Murri, 47921 Rimini RN, Italia",Rimini,RN,Emilia-Romagna,44.0613658,12.5899673,2,PRED,lat/lng to be filled via geocoding script (Nominatim) before importing into app.
BR-RN-045,Bagno 53 - Le Spiagge Rimini,"Lungomare Augusto Murri 30/a, 47921 Rimini RN, Italia",Rimini,RN,Emilia-Romagna,44.061061,12.5903061,2,PRED,lat/lng to be filled via geocoding script (Nominatim) before importing into app.
BR-RN-046,Bagno 54 - Le Spiagge Rimini,"Lungomare Augusto Murri 32, 47921 Rimini RN, Italia",Rimini,RN,Emilia-Romagna,44.0607795,12.5905723,2,PRED,lat/lng to be filled via geocoding script (Nominatim) before importing into app.
BR-RN-047,Bagno 55 - Le Spiagge Rimini,"Lungomare Augusto Murri 36/a, 47921 Rimini RN, Italia",Rimini,RN,Emilia-Romagna,44.0604744,12.5908893,2,PRED,lat/lng to be filled via geocoding script (Nominatim) before importing into app.
BR-RN-048,Bagno 56 Primo Sas Di Tacchi Gilberto E C.,"Lungomare Augusto Murri, 47921 Rimini RN, Italia",Rimini,RN,Emilia-Romagna,44.0601773,12.5911615,2,PRED,lat/lng to be filled via geocoding script (Nominatim) before importing into app.
BR-RN-049,Bagno 57 - Le Spiagge Rimini,"Lungomare Augusto Murri 36/a, 47921 Rimini RN, Italia",Rimini,RN,Emilia-Romagna,44.0598978,12.5915472,2,PRED,lat/lng to be filled via geocoding script (Nominatim) before importing into app.
BR-RN-050,Bagno 58 - Le Spiagge Rimini,"Lungomare Augusto Murri 38, 47921 Rimini RN, Italia",Rimini,RN,Emilia-Romagna,44.0597783,12.5915378,2,PRED,lat/lng to be filled via geocoding script (Nominatim) before importing into app.
BR-RN-051,Bagno 60,"Lungomare Giuseppe di Vittorio 4, 47921 Rimini RN, Italia",Rimini,RN,Emilia-Romagna,44.0592394,12.5921107,2,PRED,lat/lng to be filled via geocoding script (Nominatim) before importing into app.
BR-RN-052,Bagno 61,"Lungomare Giuseppe di Vittorio 6, 47921 Rimini RN, Italia",Rimini,RN,Emilia-Romagna,44.0590379,12.5923038,2,PRED,lat/lng to be filled via geocoding script (Nominatim) before importing into app.
BR-RN-053,Bagno 62 - Le Spiagge Rimini,"Lungomare Giuseppe di Vittorio 6/a, 47921 Rimini RN, Italia",Rimini,RN,Emilia-Romagna,44.0588121,12.5925101,2,PRED,lat/lng to be filled via geocoding script (Nominatim) before importing into app.
BR-RN-054,Bagno 63 Vittorio,"Lungomare Giuseppe di Vittorio, 47921 Rimini RN, Italia",Rimini,RN,Emilia-Romagna,44.0581071,12.592817,2,PRED,lat/lng to be filled via geocoding script (Nominatim) before importing into app.
BR-RN-055,Bagno Dario 64,"Lungomare Giuseppe di Vittorio, 47900 Rimini RN, Italia",Rimini,RN,Emilia-Romagna,44.0576457,12.5936851,2,PRED,lat/lng to be filled via geocoding script (Nominatim) before importing into app.
BR-RN-056,Bagno 66 Rimini,"Lungomare Giuseppe di Vittorio, 47921 Rimini RN, Italia",Rimini,RN,Emilia-Romagna,44.056995,12.5940306,2,PRED,lat/lng to be filled via geocoding script (Nominatim) before importing into app.
BR-RN-057,Bagno 67,"Lungomare Giuseppe di Vittorio 16A, 47921 Rimini RN, Italia",Rimini,RN,Emilia-Romagna,44.0559298,12.5953946,2,PRED,lat/lng to be filled via geocoding script (Nominatim) before importing into app.
BR-RN-058,Bagno 70,"Lungomare Giuseppe di Vittorio 18A, 47921 Rimini RN, Italia",Rimini,RN,Emilia-Romagna,44.0554122,12.5960113,2,PRED,lat/lng to be filled via geocoding script (Nominatim) before importing into app.
BR-RN-059,Bagno 71 Amarcord,"Lungomare Giuseppe di Vittorio 18/b, 47921 Rimini RN, Italia",Rimini,RN,Emilia-Romagna,44.0552825,12.5968542,2,PRED,lat/lng to be filled via geocoding script (Nominatim) before importing into app.
BR-RN-060,Bagno Claudio 72 Ondebeach,"Lungomare Giuseppe di Vittorio 20 A, 47921 Rimini RN, Italia",Rimini,RN,Emilia-Romagna,44.0549375,12.5964485,2,PRED,lat/lng to be filled via geocoding script (Nominatim) before importing into app.
BR-RN-061,Bagno 73 Riviera Ondebeach,"Lungomare Giuseppe di Vittorio 20/B, 47921 Rimini RN, Italia",Rimini,RN,Emilia-Romagna,44.0546599,12.5965333,2,PRED,lat/lng to be filled via geocoding script (Nominatim) before importing into app.
BR-RN-062,Bagni 75 Bulli,"Lungomare Giuseppe di Vittorio 20/D, 47924 Rimini RN, Italia",Rimini,RN,Emilia-Romagna,44.0542106,12.5971669,2,PRED,lat/lng to be filled via geocoding script (Nominatim) before importing into app.
BR-RN-063,Bagno 78 Sabbia d'Oro,"Lungomare Giuseppe di Vittorio 24, 47921 Rimini RN, Italia",Rimini,RN,Emilia-Romagna,44.0534266,12.5975675,2,PRED,lat/lng to be filled via geocoding script (Nominatim) before importing into app.
BR-RN-064,Bagno 79 Giovanni,"Lungomare Giuseppe di Vittorio 24, 47921 Rimini RN, Italia",Rimini,RN,Emilia-Romagna,44.0531118,12.5984129,2,PRED,lat/lng to be filled via geocoding script (Nominatim) before importing into app.
BR-RN-065,Spiaggia 80 Rimini,"Lungomare Giuseppe di Vittorio, 47924 Rimini RN, Italia",Rimini,RN,Emilia-Romagna,44.0527522,12.5988192,2,PRED,lat/lng to be filled via geocoding script (Nominatim) before importing into app.
BR-RN-066,Bagno 81,"Lungomare Giuseppe di Vittorio 28, 47924 Rimini RN, Italia",Rimini,RN,Emilia-Romagna,44.0523448,12.5991412,2,PRED,lat/lng to be filled via geocoding script (Nominatim) before importing into app.
BR-RN-067,Aloha Your Beach 83 - (Bagno 83),"Lungomare Giuseppe di Vittorio 30, 47924 Rimini RN, Italia",Rimini,RN,Emilia-Romagna,44.0519149,12.5995959,2,PRED,lat/lng to be filled via geocoding script (Nominatim) before importing into app.
BR-RN-068,Bagno 84 Graziano Rimini | Luxury Beach & Suite,"Lungomare Giuseppe di Vittorio 30a, 47921 Rimini RN, Italia",Rimini,RN,Emilia-Romagna,44.0515314,12.5998555,2,PRED,lat/lng to be filled via geocoding script (Nominatim) before importing into app.
BR-RN-069,Bagno 85 La Playa,"Lungomare Giuseppe di Vittorio 32, 47924 Rimini RN, Italia",Rimini,RN,Emilia-Romagna,44.0510882,12.6002415,2,PRED,lat/lng to be filled via geocoding script (Nominatim) before importing into app.
BR-RN-070,Bagno 85A Luca e Dea,"Lungomare Giuseppe di Vittorio 32/b, 47924 Rimini RN, Italia",Rimini,RN,Emilia-Romagna,44.0508761,12.6007599,2,PRED,lat/lng to be filled via geocoding script (Nominatim) before importing into app.
BR-RN-071,Bagno Gibo 85B,"Lungomare Giuseppe di Vittorio 34, 47924 Rimini RN, Italia",Rimini,RN,Emilia-Romagna,44.0506484,12.6010627,2,PRED,lat/lng to be filled via geocoding script (Nominatim) before importing into app.
BR-RN-072,Bagno 86 Lailai Island,"Lungomare Giuseppe di Vittorio 34/A, 47924 Rimini RN, Italia",Rimini,RN,Emilia-Romagna,44.0501234,12.6014132,2,PRED,lat/lng to be filled via geocoding script (Nominatim) before importing into app.
BR-RN-073,Bagno 86A Rimini Brand,"Lungomare Giuseppe di Vittorio 36a, 47921 Bellariva RN, Italia",Rimini,RN,Emilia-Romagna,44.049358,12.6019683,2,PRED,lat/lng to be filled via geocoding script (Nominatim) before importing into app. Locality hint: Bellariva.
BR-RN-074,Bagno 87 Carlo,"47924 Bellariva RN, Italia",Rimini,RN,Emilia-Romagna,44.0489679,12.6027024,2,PRED,lat/lng to be filled via geocoding script (Nominatim) before importing into app. Locality hint: Bellariva.
BR-RN-075,Bagno 88 Vittorio,"Lungomare Giuseppe di Vittorio 38b, 47921 Bellariva RN, Italia",Rimini,RN,Emilia-Romagna,44.0488435,12.602929,2,PRED,lat/lng to be filled via geocoding script (Nominatim) before importing into app. Locality hint: Bellariva.
BR-RN-076,Bagno 89 Lele,"Lungomare Giuseppe di Vittorio 38C, 47924 Rimini RN, Italia",Rimini,RN,Emilia-Romagna,44.0486806,12.6032191,2,PRED,lat/lng to be filled via geocoding script (Nominatim) before importing into app.
BR-RN-077,Spiaggia 90,"Lungomare Giuseppe di Vittorio 40/a, 47924 Rimini RN, Italia",Rimini,RN,Emilia-Romagna,44.0484736,12.6034589,2,PRED,lat/lng to be filled via geocoding script (Nominatim) before importing into app.
BR-RN-078,Lido San Giuliano,"Viale Ortigara, 47921 Rimini RN, Italia",Rimini,RN,Emilia-Romagna,44.0755969,12.5672599,2,PRED,lat/lng to be filled via geocoding script (Nominatim) before importing into app.
BR-RN-079,Bagno Riviera 1 di Rimini a Rivabella,"Viale Paolo Toscanelli 5\A, 47921 Rimini RN, Italia",Rimini,RN,Emilia-Romagna,44.0758409,12.5610058,2,PRED,lat/lng to be filled via geocoding script (Nominatim) before importing into app.
BR-RN-080,Bagno Celli N. 6,"Viale Paolo Toscanelli 37, 47921 Rimini RN, Italia",Rimini,RN,Emilia-Romagna,44.0781752,12.5548464,2,PRED,lat/lng to be filled via geocoding script (Nominatim) before importing into app.
BR-RN-081,Lazy Beach Bagno 7 Rivabella,"Viale Paolo Toscanelli 39a, 47921 Rivabella RN, Italia",Rimini,RN,Emilia-Romagna,44.0785791,12.5540347,2,PRED,lat/lng to be filled via geocoding script (Nominatim) before importing into app. Locality hint: Rivabella.
BR-RN-082,Bagno 10 Vatikaki,"Viale Paolo Toscanelli, 47921 Rimini RN, Italia",Rimini,RN,Emilia-Romagna,44.0797193,12.5517577,2,PRED,lat/lng to be filled via geocoding script (Nominatim) before importing into app.
BR-RN-083,Dolcevita 11 Beach Club & Restaurant,"Viale Paolo Toscanelli 59-63, 47922 Rimini RN, Italia",Rimini,RN,Emilia-Romagna,44.0797648,12.5511433,2,PRED,lat/lng to be filled via geocoding script (Nominatim) before importing into app.
BR-RN-084,Bagno 16 Club del Sole,"Viale Paolo Toscanelli, 47922 Rimini RN, Italia",Rimini,RN,Emilia-Romagna,44.080911,12.5495799,2,PRED,lat/lng to be filled via geocoding script (Nominatim) before importing into app.
BR-RN-085,Kalima Beach Club - N. 17,"Viale Paolo Toscanelli 71, 47922 Rimini RN, Italia",Rimini,RN,Emilia-Romagna,44.0822847,12.5471436,2,PRED,lat/lng to be filled via geocoding script (Nominatim) before importing into app.
BR-RN-086,Bagno 18 Golden Beach,"Viale Paolo Toscanelli 73, 47922 Rimini RN, Italia",Rimini,RN,Emilia-Romagna,44.0831595,12.5459646,2,PRED,lat/lng to be filled via geocoding script (Nominatim) before importing into app.
BR-RN-087,Bagno 19 Bruno,"Viale Giuliano Dati, 47922 Viserba RN, Italia",Rimini,RN,Emilia-Romagna,44.083726,12.5451256,2,PRED,lat/lng to be filled via geocoding script (Nominatim) before importing into app. Locality hint: Viserba.
BR-RN-088,Spiaggia Vistamare Viserba 19-20,"Viale Paolo Toscanelli 83, 47921 Viserba RN, Italia",Rimini,RN,Emilia-Romagna,44.0841698,12.5443891,2,PRED,lat/lng to be filled via geocoding script (Nominatim) before importing into app. Locality hint: Viserba.
BR-RN-089,Bagno Gastone 21,"Viale Giuliano Dati 1, 47922 Viserba RN, Italia",Rimini,RN,Emilia-Romagna,44.0843047,12.5443268,2,PRED,lat/lng to be filled via geocoding script (Nominatim) before importing into app. Locality hint: Viserba.
BR-RN-090,Bagno 22 Anna,"Viale Giuliano Dati 1/C, 47922 Viserba RN, Italia",Rimini,RN,Emilia-Romagna,44.0849374,12.5435144,2,PRED,lat/lng to be filled via geocoding script (Nominatim) before importing into app. Locality hint: Viserba.
BR-RN-091,Bagno Marinagrande Di Viserba,"Viale Giuliano Dati 19, 47922 Viserba RN, Italia",Rimini,RN,Emilia-Romagna,44.0861846,12.5417113,2,PRED,lat/lng to be filled via geocoding script (Nominatim) before importing into app. Locality hint: Viserba.
BR-RN-092,Bagno N°27 Marinagrande,"Viale Giuliano Dati 29, 47922 Rimini RN, Italia",Rimini,RN,Emilia-Romagna,44.0871534,12.5402153,2,PRED,lat/lng to be filled via geocoding script (Nominatim) before importing into app.
BR-RN-093,Playa Tamarindo,"Viale Giuliano Dati 47/D, 47922 Rimini RN, Italia",Rimini,RN,Emilia-Romagna,44.0879287,12.5391162,2,PRED,lat/lng to be filled via geocoding script (Nominatim) before importing into app.
BR-RN-094,Bagno 31 playa tamarindo,"Viale Giuliano Dati 93, 47922 Viserba RN, Italia",Rimini,RN,Emilia-Romagna,44.0883588,12.5385781,2,PRED,lat/lng to be filled via geocoding script (Nominatim) before importing into app. Locality hint: Viserba.
BR-RN-095,Bahia Rico's Spiagge 35/36 Viserba,"Viale Giuliano Dati 105A, 47922 Viserba RN, Italia",Rimini,RN,Emilia-Romagna,44.0898351,12.5362525,2,PRED,lat/lng to be filled via geocoding script (Nominatim) before importing into app. Locality hint: Viserba.
BR-RN-096,Bagno 37 Pietro,"Viale Giuliano Dati 111 a, 47922 Viserba RN, Italia",Rimini,RN,Emilia-Romagna,44.0906944,12.5348672,2,PRED,lat/lng to be filled via geocoding script (Nominatim) before importing into app. Locality hint: Viserba.
BR-RN-097,Bagno 38 Egisto,"Viale Giuliano Dati 113H, 47922 Viserba RN, Italia",Rimini,RN,Emilia-Romagna,44.090781,12.5344033,2,PRED,lat/lng to be filled via geocoding script (Nominatim) before importing into app. Locality hint: Viserba.
BR-RN-098,Spiaggia 39 Cigno,"Viale Porto Palos 3a, 47922 Viserbella RN, Italia",Rimini,RN,Emilia-Romagna,44.0919688,12.5335241,2,PRED,lat/lng to be filled via geocoding script (Nominatim) before importing into app. Locality hint: Viserbella.
BR-RN-099,Bagno 40/42 Angelo,"Viale Porto Palos 3, 47922 Viserbella RN, Italia",Rimini,RN,Emilia-Romagna,44.0925443,12.5330774,2,PRED,lat/lng to be filled via geocoding script (Nominatim) before importing into app. Locality hint: Viserbella.
BR-RN-100,Spiagge Salsedine 44-45,"Viale Porto Palos 31, 47922 Rimini RN, Italia",Rimini,RN,Emilia-Romagna,44.0942722,12.529427,2,PRED,lat/lng to be filled via geocoding script (Nominatim) before importing into app.
BR-RA-MIMA-001,Haiti .339,"Viale Xxvi Traversa 339, 48015 Cervia RA, Italia",Cervia,RA,Emilia-Romagna,44.2998741,12.3474269,2,PRED,lat/lng to be filled via overrides/geocoding pipeline.
BR-RA-MIMA-002,Pineta .337B,"337/B Via XXV Traversa Pineta, 48015 Cervia RA, Italia",Cervia,RA,Emilia-Romagna,44.2992792,12.3474177,2,PRED,lat/lng to be filled via overrides/geocoding pipeline.
BR-RA-MIMA-003,Pineta Family Village Beach .332,"Via XXIV 332/B, 48015 Milano Marittima RA, Italia",Milano Marittima,RA,Emilia-Romagna,44.2971122,12.3480596,2,PRED,lat/lng to be filled via overrides/geocoding pipeline.
BR-RA-MIMA-004,Spiaggia Libera della Colonia,"Traversa XIX Pineta, 48015 Milano Marittima RA, Italia",Milano Marittima,RA,Emilia-Romagna,44.2945141,12.3484896,2,PRED,lat/lng to be filled via overrides/geocoding pipeline.
BR-RA-MIMA-005,Colombina .320,"Via XIII Traversa, 48015 Cervia RA, Italia",Cervia,RA,Emilia-Romagna,44.2926286,12.3489433,2,PRED,lat/lng to be filled via overrides/geocoding pipeline.
BR-RA-MIMA-006,Bagno Del Pino 318,"Traversa XVII Mare 312, 48015 Milano Marittima RA, Italia",Milano Marittima,RA,Emilia-Romagna,44.2919846,12.3488311,2,PRED,lat/lng to be filled via overrides/geocoding pipeline.
BR-RA-MIMA-007,Bagno Dario,"Traversa XVI Pineta 315, 48015 Milano Marittima RA, Italia",Milano Marittima,RA,Emilia-Romagna,44.2911741,12.3490511,2,PRED,lat/lng to be filled via overrides/geocoding pipeline.
BR-RA-MIMA-008,Bagno Del Pino 312,"XV Traversa, 48015 Milano Marittima RA, Italia",Milano Marittima,RA,Emilia-Romagna,44.2904867,12.3493389,2,PRED,lat/lng to be filled via overrides/geocoding pipeline.
BR-RA-MIMA-009,Gabbiano .311,"Via XV Traversa Pineta 11, 48015 Milano Marittima RA, Italia",Milano Marittima,RA,Emilia-Romagna,44.2901202,12.3494962,2,PRED,lat/lng to be filled via overrides/geocoding pipeline.
BR-RA-MIMA-010,King's Beach #310,"Lungomare MiMa 310, 48015 Milano Marittima RA, Italia",Milano Marittima,RA,Emilia-Romagna,44.289922,12.3496961,2,PRED,lat/lng to be filled via overrides/geocoding pipeline.
BR-RA-MIMA-011,Bagno Deanna 309,"Via XIII Traversa 309, 48015 Cervia RA, Italia",Cervia,RA,Emilia-Romagna,44.2896811,12.3495902,2,PRED,lat/lng to be filled via overrides/geocoding pipeline.
BR-RA-MIMA-012,Targhini .308,"Lungomare MiMa 308, 48015 Milano Marittima RA, Italia",Milano Marittima,RA,Emilia-Romagna,44.2892484,12.3497028,2,PRED,lat/lng to be filled via overrides/geocoding pipeline.
BR-RA-MIMA-013,Bagno Virtual Beach 299,"V. IX Traversa, 48015 Milano Marittima RA, Italia",Milano Marittima,RA,Emilia-Romagna,44.2862401,12.3503657,2,PRED,lat/lng to be filled via overrides/geocoding pipeline.
BR-RA-MIMA-014,Premier Palm Beach .296,"Lungomare MiMa 296, 48015 Milano Marittima RA, Italia",Milano Marittima,RA,Emilia-Romagna,44.285218,12.3510353,2,PRED,lat/lng to be filled via overrides/geocoding pipeline.
BR-RA-MIMA-015,Duenoveuno Beach .291,"Traversa VI, 48015 Milano Marittima RA, Italia",Milano Marittima,RA,Emilia-Romagna,44.2841147,12.3510359,2,PRED,lat/lng to be filled via overrides/geocoding pipeline.
BR-RA-MIMA-016,Bagno Gallia 287,"Piazzale Torino, 48015 Milano Marittima RA, Italia",Milano Marittima,RA,Emilia-Romagna,44.2833037,12.3515451,2,PRED,lat/lng to be filled via overrides/geocoding pipeline.
BR-RA-MIMA-017,Flamingo beach .283,"Lungomare MiMa 283, 48015 Milano Marittima RA, Italia",Milano Marittima,RA,Emilia-Romagna,44.2823171,12.3519447,2,PRED,lat/lng to be filled via overrides/geocoding pipeline.
BR-RA-MIMA-018,Papeete Beach,"Via III Traversa 281, 48015 Milano Marittima RA, Italia",Milano Marittima,RA,Emilia-Romagna,44.2816929,12.3521182,2,PRED,lat/lng to be filled via overrides/geocoding pipeline.
BR-RA-MIMA-019,Bagno Rouge 280,"Via III Traversa 26, 48015 Milano Marittima RA, Italia",Milano Marittima,RA,Emilia-Romagna,44.2813145,12.3522253,2,PRED,lat/lng to be filled via overrides/geocoding pipeline.
BR-RA-MIMA-020,Corallo Beach .279,"Viale 2a Traversa 279, 48015 Milano Marittima RA, Italia",Milano Marittima,RA,Emilia-Romagna,44.2811056,12.3524274,2,PRED,lat/lng to be filled via overrides/geocoding pipeline.
BR-RA-MIMA-021,Bicio Papao .276,"Viale Spalato 276, 48015 Cervia RA, Italia",Cervia,RA,Emilia-Romagna,44.2798486,12.352992,2,PRED,lat/lng to be filled via overrides/geocoding pipeline.
BR-RA-MIMA-022,Club Milano .273,"Viale Spalato 273, 48015 Cervia RA, Italia",Cervia,RA,Emilia-Romagna,44.2791311,12.3531779,2,PRED,lat/lng to be filled via overrides/geocoding pipeline.
BR-RA-MIMA-023,Mi.Ma. Beach .272,"Lungomare MiMa 272, 48015 Milano Marittima RA, Italia",Milano Marittima,RA,Emilia-Romagna,44.278805,12.3531846,2,PRED,lat/lng to be filled via overrides/geocoding pipeline.
BR-RA-MIMA-024,Albacore .271,"Lungomare MiMa 271, 48015 Milano Marittima RA, Italia",Milano Marittima,RA,Emilia-Romagna,44.2785706,12.3529579,2,PRED,lat/lng to be filled via overrides/geocoding pipeline.
BR-RA-MIMA-025,Roma .269,"Viale Forlì, 48015 Cervia RA, Italia",Cervia,RA,Emilia-Romagna,44.2781366,12.3533353,2,PRED,lat/lng to be filled via overrides/geocoding pipeline.
BR-RA-MIMA-026,Spiaggia Centrale [libera],"Lungomare MiMa 268, 48015 Milano Marittima RA, Italia",Milano Marittima,RA,Emilia-Romagna,44.2778624,12.3532754,2,PRED,lat/lng to be filled via overrides/geocoding pipeline.
BR-RA-MIMA-027,Zefiro 268 - Ristorante e Spiaggia,"Viale Forlì 268, 48015 Milano Marittima RA, Italia",Milano Marittima,RA,Emilia-Romagna,44.2776404,12.3531474,2,PRED,lat/lng to be filled via overrides/geocoding pipeline.
BR-RA-MIMA-028,Margò Beach 266,"Via Zara 266, 48015 Milano Marittima RA, Italia",Milano Marittima,RA,Emilia-Romagna,44.2771687,12.3535234,2,PRED,lat/lng to be filled via overrides/geocoding pipeline.
BR-RA-MIMA-029,La Barcaccia .265,"Lungomare MiMa 265, 48015 Milano Marittima RA, Italia",Milano Marittima,RA,Emilia-Romagna,44.2769648,12.35346,2,PRED,lat/lng to be filled via overrides/geocoding pipeline.
BR-RA-MIMA-030,Adriatico .263,"Lungomare MiMa 263, 48015 Milano Marittima RA, Italia",Milano Marittima,RA,Emilia-Romagna,44.2764147,12.3536336,2,PRED,lat/lng to be filled via overrides/geocoding pipeline.
BR-RA-MIMA-031,Tonino .262,"Lungomare MiMa 262, 48015 Milano Marittima RA, Italia",Milano Marittima,RA,Emilia-Romagna,44.2761351,12.3538365,2,PRED,lat/lng to be filled via overrides/geocoding pipeline.
BR-RA-MIMA-032,Bagno Giulianini 260,"Viale Luigi Cadorna 260, 48015 Cervia RA, Italia",Cervia,RA,Emilia-Romagna,44.2756638,12.3536083,2,PRED,lat/lng to be filled via overrides/geocoding pipeline.
BR-RA-MIMA-033,Casta Beach .259,"Lungomare MiMa 259, 48015 Milano Marittima RA, Italia",Milano Marittima,RA,Emilia-Romagna,44.275569,12.3538427,2,PRED,lat/lng to be filled via overrides/geocoding pipeline.
BR-RA-MIMA-034,Spiaggia Milano Marittima,"48015 Milano Marittima RA, Italia",Milano Marittima,RA,Emilia-Romagna,44.275002,12.3551196,2,PRED,lat/lng to be filled via overrides/geocoding pipeline.
BR-RA-MIMA-035,Enzo Malusi .258 by fam. Alessandrini,"Arenile Demaniale/ Viale Enrico Toti 258, 48015 Milano Marittima RA, Italia",Milano Marittima,RA,Emilia-Romagna,44.2747034,12.3545179,2,PRED,lat/lng to be filled via overrides/geocoding pipeline.
BR-RA-MIMA-036,Umberto Beach .254,"Viale F. Baracca 254, 48015 Cervia RA, Italia",Cervia,RA,Emilia-Romagna,44.273693,12.3547725,2,PRED,lat/lng to be filled via overrides/geocoding pipeline.
BR-RA-MIMA-037,Bagno Oreste,"Via Arenile Demaniale 250, 48015 Milano Marittima RA, Italia",Milano Marittima,RA,Emilia-Romagna,44.2727852,12.3549255,2,PRED,lat/lng to be filled via overrides/geocoding pipeline.
BR-RA-MIMA-038,MarePineta • Beach Club & Ristorante,"Lungomare MiMa 248, 48015 Milano Marittima RA, Italia",Milano Marittima,RA,Emilia-Romagna,44.2719823,12.355595,2,PRED,lat/lng to be filled via overrides/geocoding pipeline.
BR-RA-CERVIA-001,Le Saline Beach 237,"Via Arrigo Boito, 48015 Cervia RA, Italia",Cervia,RA,Emilia-Romagna,44.2688262,12.3569985,2,PRED,lat/lng to be filled via overrides/geocoding pipeline.
BR-RA-CERVIA-002,Bagno Sorriso 228,"Lungomare Gabriele D'Annunzio 228, 48015 Cervia RA, Italia",Cervia,RA,Emilia-Romagna,44.2661661,12.3579221,2,PRED,lat/lng to be filled via overrides/geocoding pipeline.
BR-RA-CERVIA-003,cerviAmare 222-226,"Lungomare Gabriele D'Annunzio 222/226, 48015 Cervia RA, Italia",Cervia,RA,Emilia-Romagna,44.2651918,12.3581564,2,PRED,lat/lng to be filled via overrides/geocoding pipeline.
BR-RA-CERVIA-004,Simple 205,"Lungomare Grazia Deledda 205, 48015 Cervia RA, Italia",Cervia,RA,Emilia-Romagna,44.2612963,12.3602393,2,PRED,lat/lng to be filled via overrides/geocoding pipeline.
BR-RA-CERVIA-005,Sarabi Beach,"Lungomare Grazia Deledda 203, 48015 Cervia RA, Italia",Cervia,RA,Emilia-Romagna,44.2609088,12.3604105,2,PRED,lat/lng to be filled via overrides/geocoding pipeline.
BR-RA-CERVIA-006,Bagno Anna Cervia,"Lungomare Grazia Deledda 199, 48015 Cervia RA, Italia",Cervia,RA,Emilia-Romagna,44.2601379,12.3607697,2,PRED,lat/lng to be filled via overrides/geocoding pipeline.
BR-RA-CERVIA-007,Oba Oba Beach .194,"Lungomare Grazia Deledda 194, 48015 Cervia RA, Italia",Cervia,RA,Emilia-Romagna,44.25904,12.3611307,2,PRED,lat/lng to be filled via overrides/geocoding pipeline.
BR-RA-CERVIA-008,Spiaggia libera di Cervia,"Lungomare Grazia Deledda 38, 48015 Cervia RA, Italia",Cervia,RA,Emilia-Romagna,44.2585236,12.3617176,2,PRED,lat/lng to be filled via overrides/geocoding pipeline.
BR-RA-CERVIA-009,IronMan start,"48015 Cervia RA, Italia",Cervia,RA,Emilia-Romagna,44.2572644,12.3628227,2,PRED,lat/lng to be filled via overrides/geocoding pipeline.
BR-RA-CERVIA-010,Bagno Marco N. 184,"Lungomare Grazia Deledda 184, 48015 Cervia RA, Italia",Cervia,RA,Emilia-Romagna,44.2561595,12.3627027,2,PRED,lat/lng to be filled via overrides/geocoding pipeline.
BR-RA-CERVIA-011,Fantini Club,"Lungomare Grazia Deledda 182, 48015 Cervia RA, Italia",Cervia,RA,Emilia-Romagna,44.2553863,12.3633813,2,PRED,lat/lng to be filled via overrides/geocoding pipeline.
BR-RA-CERVIA-012,Bagno Romagnolo,"Lungomare Grazia Deledda 173, 48015 Cervia RA, Italia",Cervia,RA,Emilia-Romagna,44.2534479,12.3640223,2,PRED,lat/lng to be filled via overrides/geocoding pipeline.
BR-RA-CERVIA-013,Bagno 169,"Lungomare Grazia Deledda 170, 48015 Cervia RA, Italia",Cervia,RA,Emilia-Romagna,44.2530084,12.3644282,2,PRED,lat/lng to be filled via overrides/geocoding pipeline.
BR-RA-CERVIA-014,Bagno Jacarè,"Lungomare Grazia Deledda 167, 48015 Cervia RA, Italia",Cervia,RA,Emilia-Romagna,44.2527391,12.3645927,2,PRED,lat/lng to be filled via overrides/geocoding pipeline.
BR-RA-CERVIA-015,Isola 159,"Lungomare Grazia Deledda 159/b, 48015 Cervia RA, Italia",Cervia,RA,Emilia-Romagna,44.2512501,12.3653573,2,PRED,lat/lng to be filled via overrides/geocoding pipeline.
BR-RA-CERVIA-016,Bagno Balmor 156,"Lungomare Grazia Deledda 156, 48015 Cervia RA, Italia",Cervia,RA,Emilia-Romagna,44.25057,12.365804,2,PRED,lat/lng to be filled via overrides/geocoding pipeline.
BR-RA-CERVIA-017,Saretina 152,"Lungomare Grazia Deledda 152, 48015 Cervia RA, Italia",Cervia,RA,Emilia-Romagna,44.2499722,12.3660464,2,PRED,lat/lng to be filled via overrides/geocoding pipeline.
BR-RA-CERVIA-018,Medusa Beach 146 Cervia,"Lungomare Grazia Deledda 146, 48015 Cervia RA, Italia",Cervia,RA,Emilia-Romagna,44.2488638,12.366702,2,PRED,lat/lng to be filled via overrides/geocoding pipeline.
BR-RA-CERVIA-019,spiaggia libera,"Via Arenile Demaniale 127, 48015 Cervia RA, Italia",Cervia,RA,Emilia-Romagna,44.2467183,12.368316,2,PRED,lat/lng to be filled via overrides/geocoding pipeline.
BR-RA-CERVIA-020,Bagno Delfino,"Via Arenile Demaniale 127-131, 48015 Cervia RA, Italia",Cervia,RA,Emilia-Romagna,44.2458754,12.3686022,2,PRED,lat/lng to be filled via overrides/geocoding pipeline.
BR-RA-CERVIA-021,Bagno Paola,"Via Arenile Demaniale 126, 48015 Cervia RA, Italia",Cervia,RA,Emilia-Romagna,44.2453351,12.3689351,2,PRED,lat/lng to be filled via overrides/geocoding pipeline.
BR-RA-CERVIA-022,Bagno Vittorio 124,"Via Arenile Demaniale 124, 48015 Cervia RA, Italia",Cervia,RA,Emilia-Romagna,44.244704,12.3692855,2,PRED,lat/lng to be filled via overrides/geocoding pipeline.
BR-RA-CERVIA-023,Bagno Pineta 120,"Via Arenile Demaniale 93, 48015 Cervia RA, Italia",Cervia,RA,Emilia-Romagna,44.2435969,12.3701926,2,PRED,lat/lng to be filled via overrides/geocoding pipeline.
BR-RA-CERVIA-024,Bagno Sole Pinarella,"Viale Italia, 48015 Pinarella RA",Pinarella,RA,Emilia-Romagna,44.2426075,12.3708471,2,PRED,lat/lng to be filled via overrides/geocoding pipeline.
BR-RA-CERVIA-025,Adriasol Spiaggia 111,"Via Arenile Demaniale 85/86, 48015 Cervia RA, Italia",Cervia,RA,Emilia-Romagna,44.2419037,12.3714275,2,PRED,lat/lng to be filled via overrides/geocoding pipeline.
BR-RA-CERVIA-026,Bagno Andreucci Beach 107,"Via Arenile Demaniale, 48015 Pinarella di Cervia RA, Italia",Pinarella di Cervia,RA,Emilia-Romagna,44.2411245,12.3717831,2,PRED,lat/lng to be filled via overrides/geocoding pipeline.
BR-RA-CERVIA-027,Bagno Anna 95,"Via Arenile Demaniale 95, 48015 Cervia RA, Italia",Cervia,RA,Emilia-Romagna,44.2394073,12.3729076,2,PRED,lat/lng to be filled via overrides/geocoding pipeline.
BR-RA-CERVIA-028,Bagno Palm Beach 87/88,"Via Arenile Demaniale 87, 48015 Cervia RA, Italia",Cervia,RA,Emilia-Romagna,44.237872,12.3738113,2,PRED,lat/lng to be filled via overrides/geocoding pipeline.
BR-RA-CERVIA-029,Spiaggia Margherita 85-86,"Via Arenile Demaniale, 48015 Cervia RA, Italia",Cervia,RA,Emilia-Romagna,44.2374271,12.3741083,2,PRED,lat/lng to be filled via overrides/geocoding pipeline.
BR-RA-CERVIA-030,Tre Stelle 80,"Via Arenile Demaniale 80, 48015 RA, Italia",RA,RA,Emilia-Romagna,44.2366919,12.374708,2,PRED,lat/lng to be filled via overrides/geocoding pipeline.
BR-RA-CERVIA-031,Bagno Settebello Nr.76,"Via Arenile Demaniale 76, 48015 Cervia RA, Italia",Cervia,RA,Emilia-Romagna,44.236078,12.3750665,2,PRED,lat/lng to be filled via overrides/geocoding pipeline.
BR-RA-CERVIA-032,Bagno Franco,"viale Italia 70/71 48015 Pinarella di, 48015 Cervia RA",Cervia,RA,Emilia-Romagna,44.2351799,12.3756304,2,PRED,lat/lng to be filled via overrides/geocoding pipeline.
BR-RA-CERVIA-033,Bagno Oasi 67,"Viale Italia 67, 48015 Cervia RA",Cervia,RA,Emilia-Romagna,44.2344422,12.3761565,2,PRED,lat/lng to be filled via overrides/geocoding pipeline.
BR-RA-CERVIA-034,Bagno Mediterraneo 65,"Via Arenile Demaniale 65, 48015 Cervia RA, Italia",Cervia,RA,Emilia-Romagna,44.2343026,12.3764824,2,PRED,lat/lng to be filled via overrides/geocoding pipeline.
BR-RA-CERVIA-035,Vanilla Beach,"Via Arenile Demaniale 60/61, 48015 Cervia RA, Italia",Cervia,RA,Emilia-Romagna,44.2336122,12.3766343,2,PRED,lat/lng to be filled via overrides/geocoding pipeline.
BR-RA-CERVIA-036,Stabilimento Balneare Aeronautica Militare,"Via Arenile Demaniale 14, 48015 Tagliata di Cervia RA, Italia",Tagliata di Cervia,RA,Emilia-Romagna,44.226667,12.3817712,2,PRED,lat/lng to be filled via overrides/geocoding pipeline.
BR-RA-CERVIA-037,Bagno Jolly 16,"Via Arenile Demaniale 15, 48015 Tagliata di Cervia RA, Italia",Tagliata di Cervia,RA,Emilia-Romagna,44.2272432,12.3814705,2,PRED,lat/lng to be filled via overrides/geocoding pipeline.
BR-RA-CERVIA-038,Bagno Primavera n.26,"48015 Cervia RA, Italia",Cervia,RA,Emilia-Romagna,44.2285501,12.380308,2,PRED,lat/lng to be filled via overrides/geocoding pipeline.
BR-RA-CERVIA-039,KalypsoBeach 29,"48015 Cervia RA, Italia",Cervia,RA,Emilia-Romagna,44.2289658,12.3800536,2,PRED,lat/lng to be filled via overrides/geocoding pipeline.
BR-RA-CERVIA-040,Bagno Danico 39-40,"Viale Italia 328, 48015 Cervia RA",Cervia,RA,Emilia-Romagna,44.230347,12.3789844,2,PRED,lat/lng to be filled via overrides/geocoding pipeline.
BR-RA-CERVIA-041,Bagno 59 Pinarella di Cervia,"Via Arenile Demaniale 59, 48015 Cervia RA, Italia",Cervia,RA,Emilia-Romagna,44.2333697,12.3765724,2,PRED,lat/lng to be filled via overrides/geocoding pipeline.
BR-SI-CTTAO-001,Le Capannine,"Viale Presidente Kennedy 93, 95100 Catania CT, Italia",Catania,CT,Sicilia,37.4430254,15.0863957,2,PRED,lat/lng to be filled via overrides/geocoding pipeline.
BR-SI-CTTAO-002,Lido tempo libero,"Viale Presidente Kennedy, 95121 Catania CT, Italia",Catania,CT,Sicilia,37.4464264,15.0852776,2,PRED,lat/lng to be filled via overrides/geocoding pipeline.
BR-SI-CTTAO-003,Lido Delfino,"Viale Presidente Kennedy 91, 95121 Catania CT, Italia",Catania,CT,Sicilia,37.4469146,15.0858659,2,PRED,lat/lng to be filled via overrides/geocoding pipeline.
BR-SI-CTTAO-004,Lido America,"Viale Presidente Kennedy 89, 95121 Catania CT, Italia",Catania,CT,Sicilia,37.4485848,15.08595,2,PRED,lat/lng to be filled via overrides/geocoding pipeline.
BR-SI-CTTAO-005,LIDO NIKI VILLAGE,"Viale Presidente Kennedy 87, 95121 Catania CT, Italia",Catania,CT,Sicilia,37.4496269,15.0860042,2,PRED,lat/lng to be filled via overrides/geocoding pipeline.
BR-SI-CTTAO-006,Lido Jolly,"Viale Presidente Kennedy 85, 95121 Catania CT, Italia",Catania,CT,Sicilia,37.4509353,15.0854768,2,PRED,lat/lng to be filled via overrides/geocoding pipeline.
BR-SI-CTTAO-007,Lido Internazionale,"Viale Presidente Kennedy 83, 95121 Catania CT, Italia",Catania,CT,Sicilia,37.4541373,15.0854087,2,PRED,lat/lng to be filled via overrides/geocoding pipeline.
BR-SI-CTTAO-008,Lido Roma,"Viale Presidente Kennedy 77, 95121 Catania CT, Italia",Catania,CT,Sicilia,37.4552197,15.085349,2,PRED,lat/lng to be filled via overrides/geocoding pipeline.
BR-SI-CTTAO-009,LIDO ALKAMAR,"Viale Presidente Kennedy 75, 95121 Catania CT, Italia",Catania,CT,Sicilia,37.4560445,15.0853973,2,PRED,lat/lng to be filled via overrides/geocoding pipeline.
BR-SI-CTTAO-010,LIDO VENERE,"Viale Presidente Kennedy 73, 95121 Catania CT, Italia",Catania,CT,Sicilia,37.4578133,15.0844033,2,PRED,lat/lng to be filled via overrides/geocoding pipeline.
BR-SI-CTTAO-011,Circolo La Pineta,"Viale Presidente Kennedy 71, 95121 Catania CT, Italia",Catania,CT,Sicilia,37.4587863,15.084313,2,PRED,lat/lng to be filled via overrides/geocoding pipeline.
BR-SI-CTTAO-012,Lido Etna di Marino Maria Grazia & C Sas,"Viale Presidente Kennedy 69, 95121 Catania CT, Italia",Catania,CT,Sicilia,37.4600415,15.0849444,2,PRED,lat/lng to be filled via overrides/geocoding pipeline.
BR-SI-CTTAO-013,Lido Europa,"Viale Presidente Kennedy 65, 95121 Catania CT, Italia",Catania,CT,Sicilia,37.4616677,15.0840554,2,PRED,lat/lng to be filled via overrides/geocoding pipeline.
BR-SI-CTTAO-014,Lido Le Palme,"Viale Presidente Kennedy, 95121 Catania CT, Italia",Catania,CT,Sicilia,37.46225769999999,15.0848697,2,PRED,lat/lng to be filled via overrides/geocoding pipeline.
BR-SI-CTTAO-015,Lido Il Ciclope,"Viale Presidente Kennedy 59A, 95121 Catania CT, Italia",Catania,CT,Sicilia,37.4628953,15.0850039,2,PRED,lat/lng to be filled via overrides/geocoding pipeline.
BR-SI-CTTAO-016,Lido Polifemo,"Viale Presidente Kennedy 59, 95121 Catania CT, Italia",Catania,CT,Sicilia,37.4636999,15.0838741,2,PRED,lat/lng to be filled via overrides/geocoding pipeline.
BR-SI-CTTAO-017,Lido SableSalè ~ Your Summer Experience,"Viale Presidente Kennedy 57/A, 95121 Catania CT, Italia",Catania,CT,Sicilia,37.4641616,15.0852269,2,PRED,lat/lng to be filled via overrides/geocoding pipeline.
BR-SI-CTTAO-018,Beteyà Parco Avventura Inclusivo,"Viale Presidente Kennedy 55, 95121 Catania CT, Italia",Catania,CT,Sicilia,37.4655276,15.0840127,2,PRED,lat/lng to be filled via overrides/geocoding pipeline.
BR-SI-CTTAO-019,Lido Colonia don Bosco,"Viale Presidente Kennedy 55, 95121 Catania CT, Italia",Catania,CT,Sicilia,37.4665275,15.0850949,2,PRED,lat/lng to be filled via overrides/geocoding pipeline.
BR-SI-CTTAO-020,Lido Cled,"Viale Kennedy 53A, 95121 Catania CT, Italia",Catania,CT,Sicilia,37.4680715,15.0849787,2,PRED,lat/lng to be filled via overrides/geocoding pipeline.
BR-SI-CTTAO-021,Le Piramidi Beach,"Viale Presidente Kennedy 45, 95121 Catania CT, Italia",Catania,CT,Sicilia,37.4722671,15.084486,2,PRED,lat/lng to be filled via overrides/geocoding pipeline.
BR-SI-CTTAO-022,Lido Belvedere,"Viale Presidente Kennedy 41, 95121 Catania CT, Italia",Catania,CT,Sicilia,37.4734278,15.0838824,2,PRED,lat/lng to be filled via overrides/geocoding pipeline.
BR-SI-CTTAO-023,Lido Aurora,"Viale Presidente Kennedy 37/A, 95121 Catania CT, Italia",Catania,CT,Sicilia,37.4745738,15.0841884,2,PRED,lat/lng to be filled via overrides/geocoding pipeline.
BR-SI-CTTAO-024,Lido Excelsior Srl,"Viale Presidente Kennedy 35, 95121 Catania CT, Italia",Catania,CT,Sicilia,37.4755973,15.0843925,2,PRED,lat/lng to be filled via overrides/geocoding pipeline.
BR-SI-CTTAO-025,Lido Verde,"Viale Presidente Kennedy 33, 95121 Catania CT, Italia",Catania,CT,Sicilia,37.4766104,15.084347,2,PRED,lat/lng to be filled via overrides/geocoding pipeline.
BR-SI-CTTAO-026,Lido Aeronautica Militare 41° Stormo,"Viale Presidente Kennedy 25, 95121 Catania CT, Italia",Catania,CT,Sicilia,37.4782422,15.0836656,2,PRED,lat/lng to be filled via overrides/geocoding pipeline.
BR-SI-CTTAO-027,LIDO DEL FINANZIERE,"Viale Presidente Kennedy 23, 95121 Catania CT, Italia",Catania,CT,Sicilia,37.4785669,15.0837967,2,PRED,lat/lng to be filled via overrides/geocoding pipeline.
BR-SI-CTTAO-028,Lido Sud Express,"Viale Presidente Kennedy 23, 95121 Catania CT, Italia",Catania,CT,Sicilia,37.478837,15.0837249,2,PRED,lat/lng to be filled via overrides/geocoding pipeline.
BR-SI-CTTAO-029,Lido Arcobaleno,"Viale Presidente Kennedy 19, 95121 Catania CT, Italia",Catania,CT,Sicilia,37.4799482,15.0839182,2,PRED,lat/lng to be filled via overrides/geocoding pipeline.
BR-SI-CTTAO-030,Lido Grotta Smeralda,"Via Antonello da Messina 11, 95021 Aci Castello CT, Italia",Aci Castello,CT,Sicilia,37.5409716,15.1344156,2,PRED,lat/lng to be filled via overrides/geocoding pipeline.
BR-SI-CTTAO-031,Esagono Beach Club,"Via Antonello da Messina 46, 95021 Catania CT, Italia",Catania,CT,Sicilia,37.5424652,15.1391316,2,PRED,lat/lng to be filled via overrides/geocoding pipeline.
BR-SI-CTTAO-032,Lido La Giunca,"Lungomare Scardamiano 67, 95021 Aci Castello CT, Italia",Aci Castello,CT,Sicilia,37.5587084,15.1531015,2,PRED,lat/lng to be filled via overrides/geocoding pipeline.
BR-SI-CTTAO-033,Lido dei Ciclopi - Gli Ulivi S.P.A.,"Via Provinciale 2, 95021 Aci Castello CT, Italia",Aci Castello,CT,Sicilia,37.5604267,15.1567464,2,PRED,lat/lng to be filled via overrides/geocoding pipeline.
BR-SI-CTTAO-034,Bellatrix Club,"Via Acicastello 38/40, 95126 Catania CT, Italia",Catania,CT,Sicilia,37.5349541,15.1254752,2,PRED,lat/lng to be filled via overrides/geocoding pipeline.
BR-SI-CTTAO-035,Lido Aldebaran,"Via Privata Dei Villini Sul Mare 34, 95126 Catania CT, Italia",Catania,CT,Sicilia,37.534425,15.1223871,2,PRED,lat/lng to be filled via overrides/geocoding pipeline.
BR-SI-CTTAO-036,Lido Tao Beach Club,"Via Nazionale 175, 98039 Taormina ME, Italia",Taormina,ME,Sicilia,37.8638279,15.2964961,2,PRED,lat/lng to be filled via overrides/geocoding pipeline.
BR-SI-CTTAO-037,Lido Spisone,"Via Nazionale 167, 98039 Taormina ME, Italia",Taormina,ME,Sicilia,37.8598964,15.2966162,2,PRED,lat/lng to be filled via overrides/geocoding pipeline.
BR-SI-CTTAO-038,Spiaggia di Mazzarò,Italia,,,Sicilia,37.8555727,15.3012438,2,PRED,lat/lng to be filled via overrides/geocoding pipeline.
BR-SI-CTTAO-039,Spiaggia di Isola Bella,"Via Nazionale 109, 98039 Taormina ME, Italia",Taormina,ME,Sicilia,37.8510772,15.2995841,2,PRED,lat/lng to be filled via overrides/geocoding pipeline.
BR-SI-CTTAO-040,Lorenzina Beach Club Taormina,"Via Nazionale 35, 98039 Villagonia ME, Italia",Villagonia,ME,Sicilia,37.8476606,15.285912,2,PRED,lat/lng to be filled via overrides/geocoding pipeline.
