[{"id":"BR-RN-001","name":"Bagno Uno","lat":44.0762395,"lng":12.5760479},{"id":"BR-RN-002","name":"Prime Spiagge bagni 5.6.7","lat":44.074598,"lng":12.5770995},{"id":"BR-RN-003","name":"Bagno N. 7 Alan Di G.A.E. Di Iaci Gaspare E C. Snc","lat":44.0744934,"lng":12.5775252},{"id":"BR-RN-004","name":"Beach 8 Luciano - Centro Nautico","lat":44.0740137,"lng":12.5777146},{"id":"BR-RN-005","name":"La Spiaggia del Grand Hotel Rimini","lat":44.0737541,"lng":12.578315},{"id":"BR-RN-006","name":"Bagno 9 Mauro","lat":44.073298,"lng":12.5789202},{"id":"BR-RN-007","name":"Bagno delle Rose 10","lat":44.0729656,"lng":12.5791241},{"id":"BR-RN-008","name":"Bagno 12 Azzurro","lat":44.0721177,"lng":12.5787776},{"id":"BR-RN-009","name":"Bagno 14 B. L'Amarissimo","lat":44.0719663,"lng":12.5798659},{"id":"BR-RN-010","name":"Bagno 15 Oasi","lat":44.0716993,"lng":12.5801758},{"id":"BR-RN-011","name":"Bagno 16 Giorgio","lat":44.0713832,"lng":12.5804296},{"id":"BR-RN-012","name":"Bagno 17 Rimini","lat":44.0711716,"lng":12.5805854},{"id":"BR-RN-013","name":"Bagno 18 Attilio","lat":44.0708861,"lng":12.5808477},{"id":"BR-RN-014","name":"Bagno 19 Gastone","lat":44.0706143,"lng":12.5809691},{"id":"BR-RN-015","name":"Bagno 20 Arcobaleno","lat":44.0703086,"lng":12.581347},{"id":"BR-RN-016","name":"Bagni 21 Sirena Beach","lat":44.0698353,"lng":12.5808313},{"id":"BR-RN-017","name":"Bagni 23 Sirena Beach","lat":44.0697332,"lng":12.5817902},{"id":"BR-RN-018","name":"Bagno 24 Rimini","lat":44.0694947,"lng":12.5820021},{"id":"BR-RN-019","name":"Bagno Aldo 25","lat":44.0692003,"lng":12.5821928},{"id":"BR-RN-020","name":"Bagno Tiki 26 Rimini","lat":44.068857,"lng":12.5825674},{"id":"BR-RN-021","name":"La Community 27","lat":44.0685788,"lng":12.5828138},{"id":"BR-RN-022","name":"Bagno 28A Belvedere","lat":44.067695,"lng":12.5824881},{"id":"BR-RN-024","name":"Bagno 28 Nettuno Beach","lat":44.0677881,"lng":12.5837586},{"id":"BR-RN-023","name":"Bagno Nettuno","lat":44.0678353,"lng":12.5833583},{"id":"BR-RN-025","name":"Spiaggia 29 Rimini","lat":44.0674345,"lng":12.5839557},{"id":"BR-RN-026","name":"Bagno 30 Marino","lat":44.0671748,"lng":12.5841754},{"id":"BR-RN-027","name":"La Dolce Vita 34 Rimini","lat":44.0662101,"lng":12.5850858},{"id":"BR-RN-028","name":"Adriatic Village - Beach 35","lat":44.0658508,"lng":12.5855376},{"id":"BR-RN-029","name":"Adriatic Village - Beach 36","lat":44.0656511,"lng":12.5857297},{"id":"BR-RN-030","name":"Adriatic Village - Beach 37","lat":44.0654179,"lng":12.5859644},{"id":"BR-RN-031","name":"Bagno 38 Marco","lat":44.0651409,"lng":12.5862333},{"id":"BR-RN-032","name":"Bagno 39 Carlo","lat":44.0648833,"lng":12.5864854},{"id":"BR-RN-033","name":"Bagno Matteo 40 Sud","lat":44.0646549,"lng":12.5867603},{"id":"BR-RN-034","name":"Bagno 41 Lucio","lat":44.0642499,"lng":12.5871086},{"id":"BR-RN-035","name":"Papaya Beach Bagno 42","lat":44.0640029,"lng":12.5874147},{"id":"BR-RN-036","name":"Bagno 43 - Bagno onda","lat":44.06367,"lng":12.5877222},{"id":"BR-RN-037","name":"Bagno 44 Pino","lat":44.0634207,"lng":12.5879543},{"id":"BR-RN-038","name":"L'Altra Spiaggia 45","lat":44.063128,"lng":12.5882439},{"id":"BR-RN-039","name":"Bagno 46 Rimini","lat":44.0629261,"lng":12.5884017},{"id":"BR-RN-040","name":"Le Spiagge Rimini","lat":44.0625262,"lng":12.5883604},{"id":"BR-RN-041","name":"Bagno 48","lat":44.0623374,"lng":12.5890078},{"id":"BR-RN-042","name":"Bagno 50 - Le Spiagge Rimini","lat":44.0617875,"lng":12.5895358},{"id":"BR-RN-043","name":"Bagno 51","lat":44.0615217,"lng":12.5898063},{"id":"BR-RN-044","name":"Bagno 52 - Peppo Fantasy Beach","lat":44.0613658,"lng":12.5899673},{"id":"BR-RN-045","name":"Bagno 53 - Le Spiagge Rimini","lat":44.061061,"lng":12.5903061},{"id":"BR-RN-046","name":"Bagno 54 - Le Spiagge Rimini","lat":44.0607795,"lng":12.5905723},{"id":"BR-RN-047","name":"Bagno 55 - Le Spiagge Rimini","lat":44.0604744,"lng":12.5908893},{"id":"BR-RN-048","name":"Bagno 56 Primo Sas Di Tacchi Gilberto E C.","lat":44.0601773,"lng":12.5911615},{"id":"BR-RN-049","name":"Bagno 57 - Le Spiagge Rimini","lat":44.0598978,"lng":12.5915472},{"id":"BR-RN-050","name":"Bagno 58 - Le Spiagge Rimini","lat":44.0597783,"lng":12.5915378},{"id":"BR-RN-051","name":"Bagno 60","lat":44.0592394,"lng":12.5921107},{"id":"BR-RN-052","name":"Bagno 61","lat":44.0590379,"lng":12.5923038},{"id":"BR-RN-053","name":"Bagno 62 - Le Spiagge Rimini","lat":44.0588121,"lng":12.5925101},{"id":"BR-RN-054","name":"Bagno 63 Vittorio","lat":44.0581071,"lng":12.592817},{"id":"BR-RN-055","name":"Bagno Dario 64","lat":44.0576457,"lng":12.5936851},{"id":"BR-RN-056","name":"Bagno 66 Rimini","lat":44.056995,"lng":12.5940306},{"id":"BR-RN-057","name":"Bagno 67","lat":44.0559298,"lng":12.5953946},{"id":"BR-RN-058","name":"Bagno 70","lat":44.0554122,"lng":12.5960113},{"id":"BR-RN-059","name":"Bagno 71 Amarcord","lat":44.0552825,"lng":12.5968542},{"id":"BR-RN-060","name":"Bagno Claudio 72 Ondebeach","lat":44.0549375,"lng":12.5964485},{"id":"BR-RN-061","name":"Bagno 73 Riviera Ondebeach","lat":44.0546599,"lng":12.5965333},{"id":"BR-RN-062","name":"Bagni 75 Bulli","lat":44.0542106,"lng":12.5971669},{"id":"BR-RN-063","name":"Bagno 78 Sabbia d'Oro","lat":44.0534266,"lng":12.5975675},{"id":"BR-RN-064","name":"Bagno 79 Giovanni","lat":44.0531118,"lng":12.5984129},{"id":"BR-RN-065","name":"Spiaggia 80 Rimini","lat":44.0527522,"lng":12.5988192},{"id":"BR-RN-066","name":"Bagno 81","lat":44.0523448,"lng":12.5991412},{"id":"BR-RN-067","name":"Aloha Your Beach 83 - (Bagno 83)","lat":44.0519149,"lng":12.5995959},{"id":"BR-RN-068","name":"Bagno 84 Graziano Rimini | Luxury Beach & Suite","lat":44.0515314,"lng":12.5998555},{"id":"BR-RN-069","name":"Bagno 85 La Playa","lat":44.0510882,"lng":12.6002415},{"id":"BR-RN-070","name":"Bagno 85A Luca e Dea","lat":44.0508761,"lng":12.6007599},{"id":"BR-RN-071","name":"Bagno Gibo 85B","lat":44.0506484,"lng":12.6010627},{"id":"BR-RN-072","name":"Bagno 86 Lailai Island","lat":44.0501234,"lng":12.6014132},{"id":"BR-RN-073","name":"Bagno 86A Rimini Brand","lat":44.049358,"lng":12.6019683},{"id":"BR-RN-074","name":"Bagno 87 Carlo","lat":44.0489679,"lng":12.6027024},{"id":"BR-RN-075","name":"Bagno 88 Vittorio","lat":44.0488435,"lng":12.602929},{"id":"BR-RN-076","name":"Bagno 89 Lele","lat":44.0486806,"lng":12.6032191},{"id":"BR-RN-077","name":"Spiaggia 90","lat":44.0484736,"lng":12.6034589},{"id":"BR-RN-078","name":"Lido San Giuliano","lat":44.0755969,"lng":12.5672599},{"id":"BR-RN-079","name":"Bagno Riviera 1 di Rimini a Rivabella","lat":44.0758409,"lng":12.5610058},{"id":"BR-RN-080","name":"Bagno Celli N. 6","lat":44.0781752,"lng":12.5548464},{"id":"BR-RN-081","name":"Lazy Beach Bagno 7 Rivabella","lat":44.0785791,"lng":12.5540347},{"id":"BR-RN-082","name":"Bagno 10 Vatikaki","lat":44.0797193,"lng":12.5517577},{"id":"BR-RN-083","name":"Dolcevita 11 Beach Club & Restaurant","lat":44.0797648,"lng":12.5511433},{"id":"BR-RN-084","name":"Bagno 16 Club del Sole","lat":44.080911,"lng":12.5495799},{"id":"BR-RN-085","name":"Kalima Beach Club - N. 17","lat":44.0822847,"lng":12.5471436},{"id":"BR-RN-086","name":"Bagno 18 Golden Beach","lat":44.0831595,"lng":12.5459646},{"id":"BR-RN-087","name":"Bagno 19 Bruno","lat":44.083726,"lng":12.5451256},{"id":"BR-RN-088","name":"Spiaggia Vistamare Viserba 19-20","lat":44.0841698,"lng":12.5443891},{"id":"BR-RN-089","name":"Bagno Gastone 21","lat":44.0843047,"lng":12.5443268},{"id":"BR-RN-090","name":"Bagno 22 Anna","lat":44.0849374,"lng":12.5435144},{"id":"BR-RN-091","name":"Bagno Marinagrande Di Viserba","lat":44.0861846,"lng":12.5417113},{"id":"BR-RN-092","name":"Bagno N°27 Marinagrande","lat":44.0871534,"lng":12.5402153},{"id":"BR-RN-093","name":"Playa Tamarindo","lat":44.0879287,"lng":12.5391162},{"id":"BR-RN-094","name":"Bagno 31 playa tamarindo","lat":44.0883588,"lng":12.5385781},{"id":"BR-RN-095","name":"Bahia Rico's Spiagge 35/36 Viserba","lat":44.0898351,"lng":12.5362525},{"id":"BR-RN-096","name":"Bagno 37 Pietro","lat":44.0906944,"lng":12.5348672},{"id":"BR-RN-097","name":"Bagno 38 Egisto","lat":44.090781,"lng":12.5344033},{"id":"BR-RN-098","name":"Spiaggia 39 Cigno","lat":44.0919688,"lng":12.5335241},{"id":"BR-RN-099","name":"Bagno 40/42 Angelo","lat":44.0925443,"lng":12.5330774},{"id":"BR-RN-100","name":"Spiagge Salsedine 44-45","lat":44.0942722,"lng":12.529427},{"id":"BR-RA-MIMA-001","name":"Haiti .339","lat":44.2998741,"lng":12.3474269},{"id":"BR-RA-MIMA-002","name":"Pineta .337B","lat":44.2992792,"lng":12.3474177},{"id":"BR-RA-MIMA-003","name":"Pineta Family Village Beach .332","lat":44.2971122,"lng":12.3480596},{"id":"BR-RA-MIMA-004","name":"Spiaggia Libera della Colonia","lat":44.2945141,"lng":12.3484896},{"id":"BR-RA-MIMA-005","name":"Colombina .320","lat":44.2926286,"lng":12.3489433},{"id":"BR-RA-MIMA-006","name":"Bagno Del Pino 318","lat":44.2919846,"lng":12.3488311},{"id":"BR-RA-MIMA-007","name":"Bagno Dario","lat":44.2911741,"lng":12.3490511},{"id":"BR-RA-MIMA-008","name":"Bagno Del Pino 312","lat":44.2904867,"lng":12.3493389},{"id":"BR-RA-MIMA-009","name":"Gabbiano .311","lat":44.2901202,"lng":12.3494962},{"id":"BR-RA-MIMA-010","name":"King's Beach #310","lat":44.289922,"lng":12.3496961},{"id":"BR-RA-MIMA-011","name":"Bagno Deanna 309","lat":44.2896811,"lng":12.3495902},{"id":"BR-RA-MIMA-012","name":"Targhini .308","lat":44.2892484,"lng":12.3497028},{"id":"BR-RA-MIMA-013","name":"Bagno Virtual Beach 299","lat":44.2862401,"lng":12.3503657},{"id":"BR-RA-MIMA-014","name":"Premier Palm Beach .296","lat":44.285218,"lng":12.3510353},{"id":"BR-RA-MIMA-015","name":"Duenoveuno Beach .291","lat":44.2841147,"lng":12.3510359},{"id":"BR-RA-MIMA-016","name":"Bagno Gallia 287","lat":44.2833037,"lng":12.3515451},{"id":"BR-RA-MIMA-017","name":"Flamingo beach .283","lat":44.2823171,"lng":12.3519447},{"id":"BR-RA-MIMA-018","name":"Papeete Beach","lat":44.2816929,"lng":12.3521182},{"id":"BR-RA-MIMA-019","name":"Bagno Rouge 280","lat":44.2813145,"lng":12.3522253},{"id":"BR-RA-MIMA-020","name":"Corallo Beach .279","lat":44.2811056,"lng":12.3524274},{"id":"BR-RA-MIMA-021","name":"Bicio Papao .276","lat":44.2798486,"lng":12.352992},{"id":"BR-RA-MIMA-022","name":"Club Milano .273","lat":44.2791311,"lng":12.3531779},{"id":"BR-RA-MIMA-023","name":"Mi.Ma. Beach .272","lat":44.278805,"lng":12.3531846},{"id":"BR-RA-MIMA-024","name":"Albacore .271","lat":44.2785706,"lng":12.3529579},{"id":"BR-RA-MIMA-025","name":"Roma .269","lat":44.2781366,"lng":12.3533353},{"id":"BR-RA-MIMA-026","name":"Spiaggia Centrale [libera]","lat":44.2778624,"lng":12.3532754},{"id":"BR-RA-MIMA-027","name":"Zefiro 268 - Ristorante e Spiaggia","lat":44.2776404,"lng":12.3531474},{"id":"BR-RA-MIMA-028","name":"Margò Beach 266","lat":44.2771687,"lng":12.3535234},{"id":"BR-RA-MIMA-029","name":"La Barcaccia .265","lat":44.2769648,"lng":12.35346},{"id":"BR-RA-MIMA-030","name":"Adriatico .263","lat":44.2764147,"lng":12.3536336},{"id":"BR-RA-MIMA-031","name":"Tonino .262","lat":44.2761351,"lng":12.3538365},{"id":"BR-RA-MIMA-032","name":"Bagno Giulianini 260","lat":44.2756638,"lng":12.3536083},{"id":"BR-RA-MIMA-033","name":"Casta Beach .259","lat":44.275569,"lng":12.3538427},{"id":"BR-RA-MIMA-034","name":"Spiaggia Milano Marittima","lat":44.275002,"lng":12.3551196},{"id":"BR-RA-MIMA-035","name":"Enzo Malusi .258 by fam. Alessandrini","lat":44.2747034,"lng":12.3545179},{"id":"BR-RA-MIMA-036","name":"Umberto Beach .254","lat":44.273693,"lng":12.3547725},{"id":"BR-RA-MIMA-037","name":"Bagno Oreste","lat":44.2727852,"lng":12.3549255},{"id":"BR-RA-MIMA-038","name":"MarePineta • Beach Club & Ristorante","lat":44.2719823,"lng":12.355595},{"id":"BR-RA-CERVIA-001","name":"Le Saline Beach 237","lat":44.2688262,"lng":12.3569985},{"id":"BR-RA-CERVIA-002","name":"Bagno Sorriso 228","lat":44.2661661,"lng":12.3579221},{"id":"BR-RA-CERVIA-003","name":"cerviAmare 222-226","lat":44.2651918,"lng":12.3581564},{"id":"BR-RA-CERVIA-004","name":"Simple 205","lat":44.2612963,"lng":12.3602393},{"id":"BR-RA-CERVIA-005","name":"Sarabi Beach","lat":44.2609088,"lng":12.3604105},{"id":"BR-RA-CERVIA-006","name":"Bagno Anna Cervia","lat":44.2601379,"lng":12.3607697},{"id":"BR-RA-CERVIA-007","name":"Oba Oba Beach .194","lat":44.25904,"lng":12.3611307},{"id":"BR-RA-CERVIA-008","name":"Spiaggia libera di Cervia","lat":44.2585236,"lng":12.3617176},{"id":"BR-RA-CERVIA-009","name":"IronMan start","lat":44.2572644,"lng":12.3628227},{"id":"BR-RA-CERVIA-010","name":"Bagno Marco N. 184","lat":44.2561595,"lng":12.3627027},{"id":"BR-RA-CERVIA-011","name":"Fantini Club","lat":44.2553863,"lng":12.3633813},{"id":"BR-RA-CERVIA-012","name":"Bagno Romagnolo","lat":44.2534479,"lng":12.3640223},{"id":"BR-RA-CERVIA-013","name":"Bagno 169","lat":44.2530084,"lng":12.3644282},{"id":"BR-RA-CERVIA-014","name":"Bagno Jacarè","lat":44.2527391,"lng":12.3645927},{"id":"BR-RA-CERVIA-015","name":"Isola 159","lat":44.2512501,"lng":12.3653573},{"id":"BR-RA-CERVIA-016","name":"Bagno Balmor 156","lat":44.25057,"lng":12.365804},{"id":"BR-RA-CERVIA-017","name":"Saretina 152","lat":44.2499722,"lng":12.3660464},{"id":"BR-RA-CERVIA-018","name":"Medusa Beach 146 Cervia","lat":44.2488638,"lng":12.366702},{"id":"BR-RA-CERVIA-019","name":"spiaggia libera","lat":44.2467183,"lng":12.368316},{"id":"BR-RA-CERVIA-020","name":"Bagno Delfino","lat":44.2458754,"lng":12.3686022},{"id":"BR-RA-CERVIA-021","name":"Bagno Paola","lat":44.2453351,"lng":12.3689351},{"id":"BR-RA-CERVIA-022","name":"Bagno Vittorio 124","lat":44.244704,"lng":12.3692855},{"id":"BR-RA-CERVIA-023","name":"Bagno Pineta 120","lat":44.2435969,"lng":12.3701926},{"id":"BR-RA-CERVIA-024","name":"Bagno Sole Pinarella","lat":44.2426075,"lng":12.3708471},{"id":"BR-RA-CERVIA-025","name":"Adriasol Spiaggia 111","lat":44.2419037,"lng":12.3714275},{"id":"BR-RA-CERVIA-026","name":"Bagno Andreucci Beach 107","lat":44.2411245,"lng":12.3717831},{"id":"BR-RA-CERVIA-027","name":"Bagno Anna 95","lat":44.2394073,"lng":12.3729076},{"id":"BR-RA-CERVIA-028","name":"Bagno Palm Beach 87/88","lat":44.237872,"lng":12.3738113},{"id":"BR-RA-CERVIA-029","name":"Spiaggia Margherita 85-86","lat":44.2374271,"lng":12.3741083},{"id":"BR-RA-CERVIA-030","name":"Tre Stelle 80","lat":44.2366919,"lng":12.374708},{"id":"BR-RA-CERVIA-031","name":"Bagno Settebello Nr.76","lat":44.236078,"lng":12.3750665},{"id":"BR-RA-CERVIA-032","name":"Bagno Franco","lat":44.2351799,"lng":12.3756304},{"id":"BR-RA-CERVIA-033","name":"Bagno Oasi 67","lat":44.2344422,"lng":12.3761565},{"id":"BR-RA-CERVIA-034","name":"Bagno Mediterraneo 65","lat":44.2343026,"lng":12.3764824},{"id":"BR-RA-CERVIA-035","name":"Vanilla Beach","lat":44.2336122,"lng":12.3766343},{"id":"BR-RA-CERVIA-036","name":"Stabilimento Balneare Aeronautica Militare","lat":44.226667,"lng":12.3817712},{"id":"BR-RA-CERVIA-037","name":"Bagno Jolly 16","lat":44.2272432,"lng":12.3814705},{"id":"BR-RA-CERVIA-038","name":"Bagno Primavera n.26","lat":44.2285501,"lng":12.380308},{"id":"BR-RA-CERVIA-039","name":"KalypsoBeach 29","lat":44.2289658,"lng":12.3800536},{"id":"BR-RA-CERVIA-040","name":"Bagno Danico 39-40","lat":44.230347,"lng":12.3789844},{"id":"BR-RA-CERVIA-041","name":"Bagno 59 Pinarella di Cervia","lat":44.2333697,"lng":12.3765724},{"id":"BR-SI-CTTAO-001","name":"Le Capannine","lat":37.4430254,"lng":15.0863957},{"id":"BR-SI-CTTAO-002","name":"Lido tempo libero","lat":37.4464264,"lng":15.0852776},{"id":"BR-SI-CTTAO-003","name":"Lido Delfino","lat":37.4469146,"lng":15.0858659},{"id":"BR-SI-CTTAO-004","name":"Lido America","lat":37.4485848,"lng":15.08595},{"id":"BR-SI-CTTAO-005","name":"LIDO NIKI VILLAGE","lat":37.4496269,"lng":15.0860042},{"id":"BR-SI-CTTAO-006","name":"Lido Jolly","lat":37.4509353,"lng":15.0854768},{"id":"BR-SI-CTTAO-007","name":"Lido Internazionale","lat":37.4541373,"lng":15.0854087},{"id":"BR-SI-CTTAO-008","name":"Lido Roma","lat":37.4552197,"lng":15.085349},{"id":"BR-SI-CTTAO-009","name":"LIDO ALKAMAR","lat":37.4560445,"lng":15.0853973},{"id":"BR-SI-CTTAO-010","name":"LIDO VENERE","lat":37.4578133,"lng":15.0844033},{"id":"BR-SI-CTTAO-011","name":"Circolo La Pineta","lat":37.4587863,"lng":15.084313},{"id":"BR-SI-CTTAO-012","name":"Lido Etna di Marino Maria Grazia & C Sas","lat":37.4600415,"lng":15.0849444},{"id":"BR-SI-CTTAO-013","name":"Lido Europa","lat":37.4616677,"lng":15.0840554},{"id":"BR-SI-CTTAO-014","name":"Lido Le Palme","lat":37.46225769999999,"lng":15.0848697},{"id":"BR-SI-CTTAO-015","name":"Lido Il Ciclope","lat":37.4628953,"lng":15.0850039},{"id":"BR-SI-CTTAO-016","name":"Lido Polifemo","lat":37.4636999,"lng":15.0838741},{"id":"BR-SI-CTTAO-017","name":"Lido SableSalè ~ Your Summer Experience","lat":37.4641616,"lng":15.0852269},{"id":"BR-SI-CTTAO-018","name":"Beteyà Parco Avventura Inclusivo","lat":37.4655276,"lng":15.0840127},{"id":"BR-SI-CTTAO-019","name":"Lido Colonia don Bosco","lat":37.4665275,"lng":15.0850949},{"id":"BR-SI-CTTAO-020","name":"Lido Cled","lat":37.4680715,"lng":15.0849787},{"id":"BR-SI-CTTAO-021","name":"Le Piramidi Beach","lat":37.4722671,"lng":15.084486},{"id":"BR-SI-CTTAO-022","name":"Lido Belvedere","lat":37.4734278,"lng":15.0838824},{"id":"BR-SI-CTTAO-023","name":"Lido Aurora","lat":37.4745738,"lng":15.0841884},{"id":"BR-SI-CTTAO-024","name":"Lido Excelsior Srl","lat":37.4755973,"lng":15.0843925},{"id":"BR-SI-CTTAO-025","name":"Lido Verde","lat":37.4766104,"lng":15.084347},{"id":"BR-SI-CTTAO-026","name":"Lido Aeronautica Militare 41° Stormo","lat":37.4782422,"lng":15.0836656},{"id":"BR-SI-CTTAO-027","name":"LIDO DEL FINANZIERE","lat":37.4785669,"lng":15.0837967},{"id":"BR-SI-CTTAO-028","name":"Lido Sud Express","lat":37.478837,"lng":15.0837249},{"id":"BR-SI-CTTAO-029","name":"Lido Arcobaleno","lat":37.4799482,"lng":15.0839182},{"id":"BR-SI-CTTAO-030","name":"Lido Grotta Smeralda","lat":37.5409716,"lng":15.1344156},{"id":"BR-SI-CTTAO-031","name":"Esagono Beach Club","lat":37.5424652,"lng":15.1391316},{"id":"BR-SI-CTTAO-032","name":"Lido La Giunca","lat":37.5587084,"lng":15.1531015},{"id":"BR-SI-CTTAO-033","name":"Lido dei Ciclopi - Gli Ulivi S.P.A.","lat":37.5604267,"lng":15.1567464},{"id":"BR-SI-CTTAO-034","name":"Bellatrix Club","lat":37.5349541,"lng":15.1254752},{"id":"BR-SI-CTTAO-035","name":"Lido Aldebaran","lat":37.534425,"lng":15.1223871},{"id":"BR-SI-CTTAO-036","name":"Lido Tao Beach Club","lat":37.8638279,"lng":15.2964961},{"id":"BR-SI-CTTAO-037","name":"Lido Spisone","lat":37.8598964,"lng":15.2966162},{"id":"BR-SI-CTTAO-038","name":"Spiaggia di Mazzarò","lat":37.8555727,"lng":15.3012438},{"id":"BR-SI-CTTAO-039","name":"Spiaggia di Isola Bella","lat":37.8510772,"lng":15.2995841},{"id":"BR-SI-CTTAO-040","name":"Lorenzina Beach Club Taormina","lat":37.8476606,"lng":15.285912},{"id":"BR-RN-RIC-001","name":"Le Dune Beach","lat":44.0229275,"lng":12.6338879},{"id":"BR-RN-RIC-002","name":"Hyper Beach Riccione","lat":44.0210534,"lng":12.6362829},{"id":"BR-RN-RIC-003","name":"Mojito Spiaggia","lat":44.0200339,"lng":12.6376743},{"id":"BR-RN-RIC-004","name":"Opèra Beach Club","lat":44.019452,"lng":12.6386869},{"id":"BR-RN-RIC-005","name":"Samsara Beach Riccione","lat":44.0189821,"lng":12.6391231},{"id":"BR-RN-RIC-006","name":"Spiaggia129 BeachClub","lat":44.0186895,"lng":12.6399049},{"id":"BR-RN-RIC-007","name":"Spiaggia 130 131 Riccione","lat":44.0183398,"lng":12.6401528},{"id":"BR-RN-RIC-008","name":"Spiaggia 128 Riccione","lat":44.0177834,"lng":12.6408818},{"id":"BR-RN-RIC-009","name":"Bagno Nello 125","lat":44.0171323,"lng":12.6419638},{"id":"BR-RN-RIC-010","name":"Le Oasi 123 124 Riccione","lat":44.0165583,"lng":12.6420992},{"id":"BR-RN-RIC-011","name":"Bagni Nettuno 122A","lat":44.0159641,"lng":12.6431923},{"id":"BR-RN-RIC-012","name":"Bagni 122 Bluemarine","lat":44.0156922,"lng":12.6434874},{"id":"BR-RN-RIC-013","name":"Spiaggia 121","lat":44.0152305,"lng":12.6442403},{"id":"BR-RN-RIC-014","name":"Bagni 120 Riccione","lat":44.0151014,"lng":12.6445235},{"id":"BR-RN-RIC-015","name":"Bagni Luciano 119","lat":44.0147399,"lng":12.6449813},{"id":"BR-RN-RIC-016","name":"118 La Dolce Vita","lat":44.0145036,"lng":12.6452281},{"id":"BR-RN-RIC-017","name":"Bagno 117 Alba D'Oro","lat":44.01424,"lng":12.645617},{"id":"BR-RN-RIC-018","name":"Bagni Elio zona 116","lat":44.0139692,"lng":12.645982},{"id":"BR-RN-RIC-019","name":"Bagni Oreste zona 115","lat":44.013658,"lng":12.6464509},{"id":"BR-RN-RIC-020","name":"𝑩𝒂𝒈𝒏𝒊 𝑵𝒐𝒗𝒆𝒍𝒍𝒂 𝟏𝟏𝟒 𝑹𝒊𝒄𝒄𝒊𝒐𝒏𝒆","lat":44.0134597,"lng":12.6468895},{"id":"BR-RN-RIC-021","name":"Bagni Azzurra 113","lat":44.013051,"lng":12.6470923},{"id":"BR-RN-RIC-022","name":"Unounodue Beach Bagni 112","lat":44.0129248,"lng":12.6474386},{"id":"BR-RN-RIC-023","name":"Bagni Alfredo 111","lat":44.0127429,"lng":12.6478152},{"id":"BR-RN-RIC-024","name":"Bagni Giorgio 110 La Spiaggia Del Cuore","lat":44.0122173,"lng":12.6485012},{"id":"BR-RN-RIC-025","name":"Playa del Sol 108-109 | Riccione","lat":44.0119288,"lng":12.6490999},{"id":"BR-RN-RIC-026","name":"Spiaggia 107","lat":44.0112739,"lng":12.6498273},{"id":"BR-RN-RIC-027","name":"Bagno 106 Paola","lat":44.0111141,"lng":12.6500566},{"id":"BR-RN-RIC-028","name":"Spiaggia Del Benessere 105","lat":44.0109107,"lng":12.6504425},{"id":"BR-RN-RIC-029","name":"Bagno 104 - Rino E Ivo","lat":44.010646,"lng":12.650726},{"id":"BR-RN-RIC-030","name":"Lido delle Sirene 101-102","lat":44.0101203,"lng":12.6515188},{"id":"BR-RN-RIC-031","name":"Original Beach 100 3x3beachcaffè","lat":44.0096671,"lng":12.6521377},{"id":"BR-RN-RIC-032","name":"Bagni Rina 99","lat":44.0094363,"lng":12.6526591},{"id":"BR-RN-RIC-033","name":"Bagni Carla 98 S.a.s. Di Mazzotti Fabrizio E C.","lat":44.0092832,"lng":12.6527965},{"id":"BR-RN-RIC-034","name":"Spiaggia Riccione Pet Friendly Beach - La Spiaggia delle Donne","lat":44.0089554,"lng":12.6532121},{"id":"BR-RN-RIC-035","name":"Spiaggia 95 Marco - Riccione","lat":44.008554,"lng":12.6538523},{"id":"BR-RN-RIC-036","name":"Spiaggia Battarra & Settimio - 94","lat":44.0078415,"lng":12.6548275},{"id":"BR-RN-RIC-037","name":"Bagni 92 Luigi e Karin","lat":44.0075944,"lng":12.6552377},{"id":"BR-RN-RIC-038","name":"Spiaggia 91 Con Piscina","lat":44.0073452,"lng":12.6555166},{"id":"BR-RN-RIC-039","name":"Spiaggia 90","lat":44.0064891,"lng":12.6575679},{"id":"BR-RN-RIC-040","name":"Spiaggia Le Palme","lat":44.0063475,"lng":12.6578165},{"id":"BR-RN-RIC-041","name":"Spiaggia del sole 86-87","lat":44.0057234,"lng":12.6587219},{"id":"BR-RN-RIC-042","name":"Bagno Giulia 85","lat":44.0053102,"lng":12.6590443},{"id":"BR-RN-RIC-043","name":"Bagno Fabio N. 84","lat":44.0052005,"lng":12.6594534},{"id":"BR-RN-RIC-044","name":"Bagno Aldo Zona 83","lat":44.0047454,"lng":12.6599006},{"id":"BR-RN-RIC-045","name":"Spiaggia 82","lat":44.0043662,"lng":12.6598845},{"id":"BR-RN-RIC-046","name":"Bagno b.80/b.81 Riccione","lat":44.004323,"lng":12.6605287},{"id":"BR-RN-RIC-047","name":"Green Beach 79 Riccione","lat":44.0038844,"lng":12.6609606},{"id":"BR-RN-RIC-048","name":"Bagni Mauro 78 Riccione Spiaggia","lat":44.0037572,"lng":12.6612462},{"id":"BR-RN-RIC-049","name":"Spiaggia libera Columbus","lat":44.0036926,"lng":12.6621951},{"id":"BR-RN-RIC-050","name":"Spiaggia 76","lat":44.0029088,"lng":12.6629281},{"id":"BR-RN-RIC-051","name":"Golden Beach 75","lat":44.0026061,"lng":12.6629098},{"id":"BR-RN-RIC-052","name":"Bagno 74 Zanarini","lat":44.0024441,"lng":12.6633397},{"id":"BR-RN-RIC-053","name":"Beach 74 Piccioni Carlo Alberto","lat":44.0023445,"lng":12.6632789},{"id":"BR-RN-RIC-054","name":"Spiaggia 73 Riccione","lat":44.0022666,"lng":12.6636335},{"id":"BR-RN-RIC-055","name":"Bagni Ivano 72","lat":44.0018817,"lng":12.6639438},{"id":"BR-RN-RIC-056","name":"Bagno 71","lat":44.0018002,"lng":12.6641714},{"id":"BR-RN-RIC-057","name":"Bagno 70","lat":44.0014964,"lng":12.6644756},{"id":"BR-RN-RIC-058","name":"Bagno 69","lat":44.0013498,"lng":12.6647168},{"id":"BR-RN-RIC-059","name":"Bagni Ettore 68","lat":44.0011103,"lng":12.6649198},{"id":"BR-RN-RIC-060","name":"Bagno 67 Vittorio Riccione","lat":44.00101,"lng":12.6654433},{"id":"BR-RN-RIC-061","name":"Bagno Cesare 66","lat":44.0006068,"lng":12.6657221},{"id":"BR-RN-RIC-062","name":"Bagni Mario 65","lat":44.0005079,"lng":12.6660754},{"id":"BR-RN-RIC-063","name":"Bagni Gianni 64 Riccione","lat":44.0001721,"lng":12.6666239},{"id":"BR-RN-RIC-064","name":"Bagni Speranzino 63","lat":44.0000118,"lng":12.6670066},{"id":"BR-RN-RIC-065","name":"Spiaggia 62 Sandrino","lat":43.999544,"lng":12.6673652},{"id":"BR-RN-RIC-066","name":"Spiaggia 61 Della Rosa","lat":43.9993676,"lng":12.6676782},{"id":"BR-RN-RIC-067","name":"Spiaggia 60 Bagni Giorgio","lat":43.999001,"lng":12.6680785},{"id":"BR-RN-RIC-068","name":"Spiaggia 59 - Bagni Cicca","lat":43.9989392,"lng":12.6683645},{"id":"BR-RN-RIC-069","name":"Spiaggia 58 - Bagni Leo","lat":43.9987169,"lng":12.6686612},{"id":"BR-RN-RIC-070","name":"Bagni Massimo Bagno 57 Tonini Massimo","lat":43.9985854,"lng":12.6691079},{"id":"BR-RN-RIC-071","name":"Spiaggia 56 Riccione","lat":43.9984214,"lng":12.6692458},{"id":"BR-RN-RIC-072","name":"Bagno 55 Mulazzani - Riccione","lat":43.9983049,"lng":12.6695985},{"id":"BR-RN-RIC-073","name":"Spiaggia 54 Riccione - Bagni Nino e Nando","lat":43.9979452,"lng":12.6697904},{"id":"BR-RN-RIC-074","name":"Spiaggia 53 Bagni Luciano E Renzo","lat":43.9976875,"lng":12.6702197},{"id":"BR-RN-RIC-075","name":"Area 52 Papaya Beach Village Riccione","lat":43.9975339,"lng":12.670665},{"id":"BR-RN-RIC-076","name":"Spiaggia Libera Piazzale San Martino","lat":43.9972528,"lng":12.6712864},{"id":"BR-RN-RIC-077","name":"Spiaggia 51","lat":43.9967711,"lng":12.6716292},{"id":"BR-RN-RIC-078","name":"Spiaggia 50 Cesare","lat":43.9965751,"lng":12.6720486},{"id":"BR-RN-RIC-079","name":"Bagni 48 Bice Riccione","lat":43.9962196,"lng":12.6728172},{"id":"BR-RN-RIC-080","name":"Spiaggia 46/47","lat":43.9957733,"lng":12.6730508},{"id":"BR-RN-RIC-081","name":"Flamingo Beach","lat":43.9954468,"lng":12.6739463},{"id":"BR-RN-RIC-082","name":"Lab Beach 44","lat":43.9951636,"lng":12.6741822},{"id":"BR-RN-RIC-083","name":"Spiaggia libera","lat":43.9948343,"lng":12.6744015},{"id":"BR-RN-RIC-084","name":"Spiaggia 42","lat":43.9947183,"lng":12.6747562},{"id":"BR-RN-RIC-085","name":"Bagno N. 41 Di Severino E Silvia","lat":43.9945333,"lng":12.6750839},{"id":"BR-RN-RIC-086","name":"Spiaggia libera","lat":43.9942899,"lng":12.6755522},{"id":"BR-RN-RIC-087","name":"Spiaggia 39 Maci beach riccione","lat":43.9940586,"lng":12.6757795},{"id":"BR-RN-RIC-088","name":"Bagno 38 - Anna & Marcello","lat":43.9939155,"lng":12.6761589},{"id":"BR-RN-RIC-089","name":"Spiaggia 38 Riccione Playa Denis","lat":43.993967,"lng":12.6764432},{"id":"BR-RN-RIC-090","name":"Bagno N 36","lat":43.9936489,"lng":12.6765081},{"id":"BR-RN-RIC-091","name":"Nona Beach 35","lat":43.9933305,"lng":12.6773149},{"id":"BR-RN-RIC-092","name":"Bagni Mario 34 Riccione","lat":43.9928855,"lng":12.6776809},{"id":"BR-RN-RIC-093","name":"Spiaggia 32 Riccione","lat":43.9926458,"lng":12.6782192},{"id":"BR-RN-RIC-094","name":"Kiki Beach","lat":43.9923964,"lng":12.6787968},{"id":"BR-RN-RIC-095","name":"Spiaggia 28 Riccione","lat":43.9916795,"lng":12.6791634},{"id":"BR-RN-RIC-096","name":"Spiaggia 27 Riccione","lat":43.9914357,"lng":12.6795718},{"id":"BR-RN-RIC-097","name":"Bagni 26 Giancarlo","lat":43.9914046,"lng":12.6798089},{"id":"BR-RN-RIC-098","name":"Bagno 25 - La Spiaggia 25- Coop.Adriatica","lat":43.9911132,"lng":12.6802362},{"id":"BR-RN-RIC-099","name":"Spiaggia 23 Riccione - Bagni Tonino","lat":43.9908599,"lng":12.6811523},{"id":"BR-RN-RIC-100","name":"Bahia Antigua Spiaggia 20","lat":43.9903125,"lng":12.6819447},{"id":"BR-RN-RIC-101","name":"Fontanelle Beach Bagno 19","lat":43.9900506,"lng":12.6822008},{"id":"BR-RN-RIC-102","name":"Pedra del Sol Bagno 18","lat":43.9897244,"lng":12.6825938},{"id":"BR-RN-RIC-103","name":"Mario's bagno 17","lat":43.989574,"lng":12.6833212},{"id":"BR-RN-RIC-104","name":"Bagno Guerrino n.16","lat":43.9893646,"lng":12.6839075},{"id":"BR-RN-RIC-105","name":"Bagni 12 Luca Riccione","lat":43.9878773,"lng":12.6851504},{"id":"BR-RN-RIC-106","name":"Spiaggia Libera","lat":43.9869621,"lng":12.6866291},{"id":"BR-RN-RIC-107","name":"Zona Spiaggia 2 Riccione Cesare & Beach Bar DUE","lat":43.9861588,"lng":12.6881847},{"id":"BR-RN-RIC-108","name":"Spiaggia Zona 3 Riccione","lat":43.9863501,"lng":12.6877799},{"id":"BR-RN-RIC-109","name":"Zona 4 Riccione","lat":43.9865735,"lng":12.6874308},{"id":"BR-RN-RIC-110","name":"Bagni Mario Z.5","lat":43.9867222,"lng":12.686985},{"id":"BR-FE-LFER-001","name":"Baia Hippo","lat":44.6842496,"lng":12.2408499},{"id":"BR-FE-LFER-002","name":"Bagno Flamingo","lat":44.6836202,"lng":12.2412164},{"id":"BR-FE-LFER-003","name":"Lido Comacchio 003","lat":44.6776131,"lng":12.2432352},{"id":"BR-FE-LFER-004","name":"Piazzale Medaglie d'Oro","lat":44.6771118,"lng":12.2436164},{"id":"BR-FE-LFER-005","name":"Lido Comacchio 005","lat":44.679352,"lng":12.2417338},{"id":"BR-FE-LFER-006","name":"Lido Comacchio 006","lat":44.6863851,"lng":12.2406923},{"id":"BR-FE-LFER-007","name":"Bagno Medusa","lat":44.6734571,"lng":12.2465892},{"id":"BR-FE-LFER-008","name":"Bagno Sayonara","lat":44.6731205,"lng":12.246798},{"id":"BR-FE-LFER-009","name":"Lido Comacchio 009","lat":44.6728172,"lng":12.2473392},{"id":"BR-FE-LFER-010","name":"Blue Moon","lat":44.6716349,"lng":12.2472224},{"id":"BR-FE-LFER-011","name":"Bagno Jolly","lat":44.6707761,"lng":12.2471608},{"id":"BR-FE-LFER-012","name":"Bagno Onda Blu","lat":44.6703758,"lng":12.2474718},{"id":"BR-FE-LFER-013","name":"Bagno Venere","lat":44.6699696,"lng":12.2474679},{"id":"BR-FE-LFER-014","name":"Bagno Prey Fun Beach","lat":44.6691905,"lng":12.2473294},{"id":"BR-FE-LFER-015","name":"Bagno Sol Levante","lat":44.6687311,"lng":12.2471058},{"id":"BR-FE-LFER-016","name":"Lido Comacchio 016","lat":44.6683539,"lng":12.2476899},{"id":"BR-FE-LFER-017","name":"Bagno Oro","lat":44.6663378,"lng":12.2476678},{"id":"BR-FE-LFER-018","name":"Lido Comacchio 018","lat":44.665472,"lng":12.2474614},{"id":"BR-FE-LFER-019","name":"Lido Comacchio 019","lat":44.6650387,"lng":12.2474772},{"id":"BR-FE-LFER-020","name":"Playa Loca","lat":44.6646779,"lng":12.2476782},{"id":"BR-FE-LFER-021","name":"Bagno Perla","lat":44.6642789,"lng":12.2475993},{"id":"BR-FE-LFER-022","name":"Cocoà Spiaggia","lat":44.6638892,"lng":12.2480293},{"id":"BR-FE-LFER-023","name":"Pineta Beach","lat":44.6634712,"lng":12.2477675},{"id":"BR-FE-LFER-024","name":"Lido Comacchio 024","lat":44.6631112,"lng":12.2483504},{"id":"BR-FE-LFER-025","name":"Lido Comacchio 025","lat":44.6627617,"lng":12.2483568},{"id":"BR-FE-LFER-026","name":"Bagno Aragosta","lat":44.662295,"lng":12.248182},{"id":"BR-FE-LFER-027","name":"Lido Comacchio 027","lat":44.6619033,"lng":12.2482509},{"id":"BR-FE-LFER-028","name":"Aquarama Beach & Pool","lat":44.6614922,"lng":12.2496771},{"id":"BR-FE-LFER-029","name":"Bagno Campo del Sole","lat":44.6584937,"lng":12.2491486},{"id":"BR-FE-LFER-030","name":"Bagno Roma","lat":44.6581364,"lng":12.2495149},{"id":"BR-FE-LFER-031","name":"Bagno Faro","lat":44.6576643,"lng":12.2496333},{"id":"BR-FE-LFER-032","name":"Bagno Hawaii","lat":44.6572576,"lng":12.2504076},{"id":"BR-FE-LFER-033","name":"Bagno Honolulu","lat":44.6568047,"lng":12.2505477},{"id":"BR-FE-LFER-034","name":"Bagno Haiti","lat":44.6563672,"lng":12.2505676},{"id":"BR-FE-LFER-035","name":"Bagno Trocadero","lat":44.6545476,"lng":12.2508916},{"id":"BR-FE-LFER-036","name":"Bagno Ristorante Havana Beach 41","lat":44.6532788,"lng":12.2512385},{"id":"BR-FE-LFER-037","name":"Bagno Montecarlo","lat":44.6527404,"lng":12.2515129},{"id":"BR-FE-LFER-038","name":"Bagno Baia di Maui","lat":44.6519447,"lng":12.2516952},{"id":"BR-FE-LFER-039","name":"Bagno Bussola","lat":44.6509944,"lng":12.2519164},{"id":"BR-FE-LFER-040","name":"Bagno Corallo","lat":44.6506302,"lng":12.2520968},{"id":"BR-FE-LFER-041","name":"Bagno Granchio","lat":44.6502176,"lng":12.252102},{"id":"BR-FE-LFER-042","name":"Bagno Las Vegas","lat":44.6493968,"lng":12.2528065},{"id":"BR-FE-LFER-043","name":"Bagno Sport","lat":44.6490191,"lng":12.2532547},{"id":"BR-FE-LFER-044","name":"Bagno Schiuma","lat":44.6485992,"lng":12.2535928},{"id":"BR-FE-LFER-045","name":"Bagno Malua","lat":44.647212,"lng":12.254147},{"id":"BR-FE-LFER-046","name":"Marrakech Beach","lat":44.6468808,"lng":12.2542683},{"id":"BR-FE-LFER-047","name":"Bagno 57","lat":44.646086,"lng":12.254777},{"id":"BR-FE-LFER-048","name":"Bagno Patrizia","lat":44.6456691,"lng":12.2552107},{"id":"BR-FE-LFER-049","name":"Bagno Mirko","lat":44.645234,"lng":12.2553292},{"id":"BR-FE-LFER-050","name":"Bagno Holiday","lat":44.6448466,"lng":12.2558723},{"id":"BR-FE-LFER-051","name":"Bagno Sabbia d'Oro","lat":44.6439875,"lng":12.2560278},{"id":"BR-FE-LFER-052","name":"DolceVita Beach Club","lat":44.6353528,"lng":12.2647417},{"id":"BR-FE-LFER-053","name":"Holiday Park \"Spiaggia e Mare\"","lat":44.6923465,"lng":12.2388287},{"id":"BR-FE-LFER-054","name":"Lido Comacchio 054","lat":44.7022399,"lng":12.2398332},{"id":"BR-FE-LFER-055","name":"Bagno Pinguino","lat":44.7047093,"lng":12.239885},{"id":"BR-FE-LFER-056","name":"Bagno Miami","lat":44.705055,"lng":12.2398389},{"id":"BR-FE-LFER-057","name":"Bagno Alfiere","lat":44.7068689,"lng":12.2403302},{"id":"BR-FE-LFER-058","name":"Lido Comacchio 058","lat":44.7078056,"lng":12.2401995},{"id":"BR-FE-LFER-059","name":"Bagno Clodia 54","lat":44.7084611,"lng":12.2402243},{"id":"BR-FE-LFER-060","name":"Lido Comacchio 060","lat":44.7103232,"lng":12.239886},{"id":"BR-FE-LFER-061","name":"Lido Comacchio 061","lat":44.71251,"lng":12.239854},{"id":"BR-FE-LFER-062","name":"Bagno PicNic","lat":44.7133851,"lng":12.2403033},{"id":"BR-FE-LFER-063","name":"Bar Bagno Ischia","lat":44.7155615,"lng":12.240536},{"id":"BR-FE-LFER-064","name":"Lido Comacchio 064","lat":44.7180556,"lng":12.2408334},{"id":"BR-FE-LFER-065","name":"Lido Comacchio 065","lat":44.7188505,"lng":12.2408325},{"id":"BR-FE-LFER-066","name":"Camping Village I Tre Moschettieri","lat":44.7257725,"lng":12.2418095},{"id":"BR-FE-LFER-067","name":"Lido Comacchio 067","lat":44.7312232,"lng":12.2430285},{"id":"BR-FE-LFER-068","name":"Lido Comacchio 068","lat":44.7360449,"lng":12.2430851},{"id":"BR-FE-LFER-069","name":"Lido Comacchio 069","lat":44.7370863,"lng":12.2430435},{"id":"BR-FE-LFER-070","name":"Lido Comacchio 070","lat":44.7379173,"lng":12.243081},{"id":"BR-FE-LFER-071","name":"Lido Comacchio 071","lat":44.7395913,"lng":12.2432251},{"id":"BR-FE-LFER-072","name":"Lido Comacchio 072","lat":44.7413107,"lng":12.2434786},{"id":"BR-FE-LFER-073","name":"Lido Comacchio 073","lat":44.741853,"lng":12.24383},{"id":"BR-FE-LFER-074","name":"Lido Comacchio 074","lat":44.7428466,"lng":12.2444545},{"id":"BR-FE-LFER-075","name":"Bar Bagno Serena","lat":44.7433216,"lng":12.2447284},{"id":"BR-FE-LFER-076","name":"Lido Comacchio 076","lat":44.7441155,"lng":12.2450135},{"id":"BR-FE-LFER-077","name":"Lido Comacchio 077","lat":44.7452057,"lng":12.2452256},{"id":"BR-FE-LFER-078","name":"Bagno 20 Oasi","lat":44.7484798,"lng":12.2453453},{"id":"BR-FE-LFER-079","name":"Lido Comacchio 079","lat":44.7508688,"lng":12.2465915},{"id":"BR-FE-LFER-080","name":"Lido Comacchio 080","lat":44.7519019,"lng":12.2471239},{"id":"BR-RM-ROMA-001","name":"Lido Roma 001","lat":41.7009432,"lng":12.3459261},{"id":"BR-RM-ROMA-002","name":"Lido Roma 002","lat":41.7020072,"lng":12.3446807},{"id":"BR-RM-ROMA-003","name":"Lido Roma 003","lat":41.7012672,"lng":12.3452062},{"id":"BR-RM-ROMA-004","name":"Lido Roma 004","lat":41.7021295,"lng":12.343636},{"id":"BR-RM-ROMA-005","name":"Il Gabbiano","lat":41.7026506,"lng":12.343308},{"id":"BR-RM-ROMA-006","name":"Lido Roma 006","lat":41.7034673,"lng":12.342051},{"id":"BR-RM-ROMA-007","name":"Lido Roma 007","lat":41.7044602,"lng":12.3396919},{"id":"BR-RM-ROMA-008","name":"Lido del Finanziere","lat":41.7041744,"lng":12.3384296},{"id":"BR-RM-ROMA-009","name":"Lido del Finanziere","lat":41.7044098,"lng":12.3374393},{"id":"BR-RM-ROMA-010","name":"Lido Roma 010","lat":41.7054952,"lng":12.3373556},{"id":"BR-RM-ROMA-011","name":"Lido Roma 011","lat":41.705828,"lng":12.336924},{"id":"BR-RM-ROMA-012","name":"Lido Roma 012","lat":41.7074223,"lng":12.3329459},{"id":"BR-RM-ROMA-013","name":"Lido Roma 013","lat":41.7075975,"lng":12.3311716},{"id":"BR-RM-ROMA-014","name":"Stabilimento Balneare Le Palme","lat":41.7087359,"lng":12.3292797},{"id":"BR-RM-ROMA-015","name":"C.R.D.D. Marina Militare","lat":41.7093491,"lng":12.3284937},{"id":"BR-RM-ROMA-016","name":"Lido Roma 016","lat":41.7108334,"lng":12.3258398},{"id":"BR-RM-ROMA-017","name":"Lido Roma 017","lat":41.7109183,"lng":12.3247788},{"id":"BR-RM-ROMA-018","name":"Orsa Maggiore","lat":41.7112863,"lng":12.3239477},{"id":"BR-RM-ROMA-019","name":"Lido Azzurro","lat":41.7115713,"lng":12.3229808},{"id":"BR-RM-ROMA-020","name":"Lido Roma 020","lat":41.7120365,"lng":12.321887},{"id":"BR-RM-ROMA-021","name":"Lido Roma 021","lat":41.7122337,"lng":12.3206463},{"id":"BR-RM-ROMA-022","name":"Lido Roma 022","lat":41.7133682,"lng":12.3178244},{"id":"BR-RM-ROMA-023","name":"Mamaflo","lat":41.7166107,"lng":12.310134},{"id":"BR-RM-ROMA-024","name":"Lido Roma 024","lat":41.7187404,"lng":12.3037643},{"id":"BR-RM-ROMA-025","name":"Lido Roma 025","lat":41.7190708,"lng":12.3030797},{"id":"BR-RM-ROMA-026","name":"T","lat":41.7206638,"lng":12.2989255},{"id":"BR-RM-ROMA-027","name":"Tibidabo Beach","lat":41.7211875,"lng":12.297101},{"id":"BR-RM-ROMA-028","name":"Spiaggia Libera Hakuna Matata","lat":41.7220505,"lng":12.2957413},{"id":"BR-RM-ROMA-029","name":"Lido Roma 029","lat":41.7232345,"lng":12.2934417},{"id":"BR-RM-ROMA-030","name":"Il Capanno","lat":41.725218,"lng":12.2879065},{"id":"BR-RM-ROMA-031","name":"Il curvone","lat":41.7256472,"lng":12.2859643},{"id":"BR-RM-ROMA-032","name":"Il marechiaro","lat":41.7268483,"lng":12.2846548},{"id":"BR-RM-ROMA-033","name":"Marechiaro","lat":41.7271815,"lng":12.2838008},{"id":"BR-RM-ROMA-034","name":"Marechiaro","lat":41.7275114,"lng":12.282646},{"id":"BR-RM-ROMA-035","name":"Lido Roma 035","lat":41.7283316,"lng":12.279816},{"id":"BR-RM-ROMA-036","name":"Battistini","lat":41.7290074,"lng":12.2776595},{"id":"BR-RM-ROMA-037","name":"Tramonto de Roma","lat":41.7298827,"lng":12.2749435},{"id":"BR-RM-ROMA-038","name":"Don Pepe","lat":41.7306594,"lng":12.2728353},{"id":"BR-RM-ROMA-039","name":"Ciclabile Lungomare di Ostia","lat":41.7319458,"lng":12.2692799},{"id":"BR-RM-ROMA-040","name":"Ciclabile Lungomare di Ostia","lat":41.7327175,"lng":12.2668623},{"id":"BR-RM-ROMA-041","name":"Lido Roma 041","lat":41.7334637,"lng":12.2639229},{"id":"BR-RM-ROMA-042","name":"Lido Roma 042","lat":41.736881,"lng":12.2531867},{"id":"BR-RM-ROMA-043","name":"Lido Fiumicino 043","lat":41.754615,"lng":12.2285771},{"id":"BR-RM-ROMA-044","name":"Papaya Beach","lat":41.7593741,"lng":12.2266103},{"id":"BR-RM-ROMA-045","name":"Lido Fiumicino 045","lat":41.7647812,"lng":12.2237767},{"id":"BR-RM-ROMA-046","name":"Lido Fiumicino 046","lat":41.7667121,"lng":12.222702},{"id":"BR-RM-ROMA-047","name":"Lido Fiumicino 047","lat":41.7675854,"lng":12.2229766},{"id":"BR-RM-ROMA-048","name":"Lido Fiumicino 048","lat":41.7678422,"lng":12.2229036},{"id":"BR-RM-ROMA-049","name":"Piazzale Enrico Molinari","lat":41.7696584,"lng":12.221043},{"id":"BR-RM-ROMA-050","name":"Lido Fiumicino 050","lat":41.7704708,"lng":12.2207349},{"id":"BR-RM-ROMA-051","name":"Lido Fiumicino 051","lat":41.7708939,"lng":12.2200575},{"id":"BR-RM-ROMA-052","name":"Lido Fiumicino 052","lat":41.781119,"lng":12.2247127},{"id":"BR-RM-ROMA-053","name":"Focene","lat":41.7890862,"lng":12.2222102},{"id":"BR-RM-ROMA-054","name":"Cabiria Slow Beach","lat":41.800074,"lng":12.2168238},{"id":"BR-RM-ROMA-055","name":"Malibu Beach Club","lat":41.8031746,"lng":12.2157383},{"id":"BR-RM-ROMA-056","name":"Buena Onda","lat":41.8059999,"lng":12.214454},{"id":"BR-RM-ROMA-057","name":"Havana beach","lat":41.8071253,"lng":12.2139158},{"id":"BR-RM-ROMA-058","name":"Lido Fiumicino 058","lat":41.8087942,"lng":12.213684},{"id":"BR-RM-ROMA-059","name":"Baraonda Beach","lat":41.8101182,"lng":12.2132598},{"id":"BR-RM-ROMA-060","name":"Lido Fiumicino 060","lat":41.8106388,"lng":12.2126934},{"id":"BR-RM-ROMA-061","name":"Lido Fiumicino 061","lat":41.8120498,"lng":12.2127504},{"id":"BR-RM-ROMA-062","name":"Lido Fiumicino 062","lat":41.8138331,"lng":12.2117958},{"id":"BR-RM-ROMA-063","name":"Lido Fiumicino 063","lat":41.8151282,"lng":12.2115963},{"id":"BR-RM-ROMA-064","name":"Lido Fiumicino 064","lat":41.8162713,"lng":12.2108102},{"id":"BR-RM-ROMA-065","name":"Lido Fiumicino 065","lat":41.8195251,"lng":12.2093962},{"id":"BR-RM-ROMA-066","name":"Piazzale Tommaso Albinoni","lat":41.8206644,"lng":12.2090056},{"id":"BR-RM-ROMA-067","name":"Lido Fiumicino 067","lat":41.8214606,"lng":12.2083354},{"id":"BR-RM-ROMA-068","name":"Lido Fiumicino 068","lat":41.8228836,"lng":12.2082084},{"id":"BR-RM-ROMA-069","name":"40 gradi all’ombra","lat":41.8253575,"lng":12.2067192},{"id":"BR-RM-ROMA-070","name":"Lido Fiumicino 070","lat":41.8259348,"lng":12.207328},{"id":"BR-SI-SUD-001","name":"Lido Siracusa 001","lat":37.1058239,"lng":15.268264},{"id":"BR-SI-SUD-002","name":"Lido Priolo Gargallo 002","lat":37.1426368,"lng":15.2191916},{"id":"BR-SI-SUD-003","name":"I Rutazzi","lat":37.0855447,"lng":15.3002959},{"id":"BR-SI-SUD-004","name":"Lido Siracusa 004","lat":37.106453,"lng":15.2779591},{"id":"BR-SI-SUD-005","name":"Lido Siracusa 005","lat":37.0709535,"lng":15.2937077},{"id":"BR-SI-SUD-006","name":"Lido Siracusa 006","lat":37.0446591,"lng":15.2755572},{"id":"BR-SI-SUD-007","name":"Lido Siracusa 007","lat":37.042753,"lng":15.275296},{"id":"BR-SI-SUD-008","name":"Punta Maddalena","lat":37.03608,"lng":15.2921829},{"id":"BR-SI-SUD-009","name":"Lido Siracusa 009","lat":37.0332153,"lng":15.2915153},{"id":"BR-SI-SUD-010","name":"Lido Siracusa 010","lat":37.0325396,"lng":15.2888219},{"id":"BR-SI-SUD-011","name":"Faro Massolivieri","lat":37.0425679,"lng":15.303259},{"id":"BR-SI-SUD-012","name":"Lido Siracusa 012","lat":37.0395944,"lng":15.3048047},{"id":"BR-SI-SUD-013","name":"Lido Siracusa 013","lat":37.0397593,"lng":15.3061827},{"id":"BR-SI-SUD-014","name":"Lido Siracusa 014","lat":37.0372915,"lng":15.3108166},{"id":"BR-SI-SUD-015","name":"Lido Siracusa 015","lat":37.0348986,"lng":15.3155355},{"id":"BR-SI-SUD-016","name":"Lido Siracusa 016","lat":37.0229578,"lng":15.3229912},{"id":"BR-SI-SUD-017","name":"Lido Siracusa 017","lat":37.0194207,"lng":15.3258017},{"id":"BR-SI-SUD-018","name":"Lido Siracusa 018","lat":37.019207,"lng":15.326485},{"id":"BR-SI-SUD-019","name":"Grotte delle Corvine","lat":37.0171254,"lng":15.3297073},{"id":"BR-SI-SUD-020","name":"Arco dell'Elefante","lat":37.0097439,"lng":15.335572},{"id":"BR-SI-SUD-021","name":"Faro di Capo Murro di Porco","lat":37.0014814,"lng":15.3335727},{"id":"BR-SI-SUD-022","name":"Lido Siracusa 022","lat":37.002503,"lng":15.324864},{"id":"BR-SI-SUD-023","name":"Lido Siracusa 023","lat":37.003677,"lng":15.3256877},{"id":"BR-SI-SUD-024","name":"Lido Siracusa 024","lat":37.0030817,"lng":15.3230883},{"id":"BR-SI-SUD-025","name":"Lido Siracusa 025","lat":37.0030681,"lng":15.3205563},{"id":"BR-SI-SUD-026","name":"Lido Siracusa 026","lat":37.0037704,"lng":15.3142142},{"id":"BR-SI-SUD-027","name":"Lido Siracusa 027","lat":37.0049909,"lng":15.3137624},{"id":"BR-SI-SUD-028","name":"Lido Siracusa 028","lat":37.0063514,"lng":15.3125705},{"id":"BR-SI-SUD-029","name":"Lido Siracusa 029","lat":37.0090197,"lng":15.3099268},{"id":"BR-SI-SUD-030","name":"Lido Siracusa 030","lat":37.0104115,"lng":15.3085732},{"id":"BR-SI-SUD-031","name":"Lido Siracusa 031","lat":37.0110626,"lng":15.3084373},{"id":"BR-SI-SUD-032","name":"Lido Siracusa 032","lat":37.0130023,"lng":15.2961259},{"id":"BR-SI-SUD-033","name":"Lido Siracusa 033","lat":37.0100258,"lng":15.292444},{"id":"BR-SI-SUD-034","name":"Lido Siracusa 034","lat":37.0078176,"lng":15.2870249},{"id":"BR-SI-SUD-035","name":"Lido Siracusa 035","lat":37.0078051,"lng":15.2759873},{"id":"BR-SI-SUD-036","name":"Lido Siracusa 036","lat":37.0064134,"lng":15.2741281},{"id":"BR-SI-SUD-037","name":"Residence Arenella","lat":36.9974254,"lng":15.2647387},{"id":"BR-SI-SUD-038","name":"Samoa Club","lat":37.0024542,"lng":15.2675733},{"id":"BR-SI-SUD-039","name":"Lido Arenella","lat":36.9939342,"lng":15.2668437},{"id":"BR-SI-SUD-040","name":"Lido Siracusa 040","lat":36.9922734,"lng":15.2692808},{"id":"BR-SI-SUD-041","name":"Lido Siracusa 041","lat":36.9798169,"lng":15.2602443},{"id":"BR-SI-SUD-042","name":"Lido Siracusa 042","lat":36.9711518,"lng":15.2408051},{"id":"BR-SI-SUD-043","name":"Spiaggia del Gelsomineto","lat":36.9473486,"lng":15.1871208},{"id":"BR-SI-SUD-044","name":"Lido Avola 044","lat":36.9378628,"lng":15.178316},{"id":"BR-SI-SUD-045","name":"Lido Avola 045","lat":36.8949797,"lng":15.1433555},{"id":"BR-SI-SUD-046","name":"Voria Beach","lat":36.8805449,"lng":15.1366511},{"id":"BR-SI-SUD-047","name":"Lido Il Solleone","lat":36.8800899,"lng":15.1365116},{"id":"BR-SI-SUD-048","name":"Joy Beach","lat":36.8789259,"lng":15.1362802},{"id":"BR-SI-SUD-049","name":"Lido Noto 049","lat":36.8758715,"lng":15.1371126},{"id":"BR-SI-SUD-050","name":"Lido Noto 050","lat":36.8739174,"lng":15.1384333},{"id":"BR-SI-SUD-051","name":"Lido Noto 051","lat":36.8721773,"lng":15.1375659},{"id":"BR-SI-SUD-052","name":"Lido Noto 052","lat":36.86665,"lng":15.1354805},{"id":"BR-SI-SUD-053","name":"Scogliera Bianca","lat":36.8610805,"lng":15.1202848},{"id":"BR-SI-SUD-054","name":"Lido Noto 054","lat":36.8594489,"lng":15.1176288},{"id":"BR-SI-SUD-055","name":"I Sapori del Mare","lat":36.8551253,"lng":15.1148619},{"id":"BR-SI-SUD-056","name":"Lido Noto 056","lat":36.853733,"lng":15.11387},{"id":"BR-SI-SUD-057","name":"Lido Noto 057","lat":36.8532972,"lng":15.1128261},{"id":"BR-SI-SUD-058","name":"Lido Noto 058","lat":36.8529311,"lng":15.1125675},{"id":"BR-SI-SUD-059","name":"Lido Noto 059","lat":36.8527502,"lng":15.1116481},{"id":"BR-SI-SUD-060","name":"Il San Corrado di Noto Beach Club","lat":36.8523344,"lng":15.1127779},{"id":"BR-SI-SUD-061","name":"Lido Helios","lat":36.8505603,"lng":15.1125429},{"id":"BR-SI-SUD-062","name":"Hotel Club Eloro","lat":36.8499626,"lng":15.1113188},{"id":"BR-SI-SUD-063","name":"Hotel Club Eloro","lat":36.8502642,"lng":15.1113856},{"id":"BR-SI-SUD-064","name":"Spiaggia di Marianelli","lat":36.8337686,"lng":15.1057271},{"id":"BR-SI-SUD-065","name":"Carraie Balsamo - Pantano Piccolo","lat":36.815731,"lng":15.109202},{"id":"BR-SI-SUD-066","name":"Tonnara di Vendicari","lat":36.8029795,"lng":15.0991791},{"id":"BR-SI-SUD-067","name":"Centro Visitatori","lat":36.8028227,"lng":15.0998123},{"id":"BR-SI-SUD-068","name":"sightseeing","lat":36.7986425,"lng":15.0929749},{"id":"BR-SI-SUD-069","name":"Lido Noto 069","lat":36.7727616,"lng":15.0984711},{"id":"BR-SI-SUD-070","name":"Lido Noto 070","lat":36.772733,"lng":15.0997116},{"id":"BR-SI-SUD-071","name":"Lido Noto 071","lat":36.7712245,"lng":15.0998081},{"id":"BR-SI-SUD-072","name":"Lido Noto 072","lat":36.7672142,"lng":15.0994993},{"id":"BR-SI-SUD-073","name":"Lido Noto 073","lat":36.7662078,"lng":15.099793},{"id":"BR-SI-SUD-074","name":"Lido Noto 074","lat":36.7646441,"lng":15.0999044},{"id":"BR-SI-SUD-075","name":"Lido Noto 075","lat":36.7639594,"lng":15.1001531},{"id":"BR-SI-SUD-076","name":"Lido Noto 076","lat":36.7597121,"lng":15.1004105},{"id":"BR-SI-SUD-077","name":"Enel X Way","lat":36.7579651,"lng":15.1014317},{"id":"BR-SI-SUD-078","name":"Lido Noto 078","lat":36.7570166,"lng":15.1014371},{"id":"BR-SI-SUD-079","name":"Lido Noto 079","lat":36.7564793,"lng":15.1034948},{"id":"BR-SI-SUD-080","name":"Lido Noto 080","lat":36.7547782,"lng":15.1043609},{"id":"BR-SI-SUD-081","name":"Lido Noto 081","lat":36.7521321,"lng":15.1085716},{"id":"BR-SI-SUD-082","name":"Lido Noto 082","lat":36.7500675,"lng":15.1079985},{"id":"BR-SI-SUD-083","name":"Lido Noto 083","lat":36.7479701,"lng":15.1094349},{"id":"BR-SI-SUD-084","name":"Lido Noto 084","lat":36.7459355,"lng":15.1111924},{"id":"BR-SI-SUD-085","name":"Lido Noto 085","lat":36.7444333,"lng":15.1138862},{"id":"BR-SI-SUD-086","name":"Lido Santo Mar","lat":36.7205969,"lng":15.1191428},{"id":"BR-SI-SUD-087","name":"Lido Pachino 087","lat":36.7107138,"lng":15.1204517},{"id":"BR-SI-SUD-088","name":"Lido Morghella","lat":36.7019163,"lng":15.1229015},{"id":"BR-SI-SUD-089","name":"Lido Morghella","lat":36.7026875,"lng":15.1230625},{"id":"BR-SI-SUD-090","name":"Lido Portopalo di Capo Passero 090","lat":36.6853202,"lng":15.1403427},{"id":"BR-SI-SUD-091","name":"Lido Portopalo di Capo Passero 091","lat":36.6849612,"lng":15.1397459},{"id":"BR-SI-SUD-092","name":"Lido Portopalo di Capo Passero 092","lat":36.6735257,"lng":15.1239671},{"id":"BR-SI-SUD-093","name":"Lido Portopalo di Capo Passero 093","lat":36.6729515,"lng":15.1114824},{"id":"BR-SI-SUD-094","name":"Lido Portopalo di Capo Passero 094","lat":36.662218,"lng":15.1048125},{"id":"BR-SI-SUD-095","name":"Lido Pachino 095","lat":36.6500374,"lng":15.081646},{"id":"BR-SI-SUD-096","name":"Scialai","lat":36.6490329,"lng":15.0802074},{"id":"BR-SI-SUD-097","name":"Captain","lat":36.6524244,"lng":15.0792666},{"id":"BR-SI-SUD-098","name":"Lido Kalè Beach","lat":36.6554232,"lng":15.0749961},{"id":"BR-SI-SUD-099","name":"Lido Playa Carratois","lat":36.6565411,"lng":15.0733482},{"id":"BR-SI-SUD-100","name":"Lido Dune Beach","lat":36.658337,"lng":15.0724014},{"id":"BR-SI-SUD-101","name":"Lido Pachino 101","lat":36.6596468,"lng":15.0702986},{"id":"BR-SI-SUD-102","name":"Lido Dune Beach","lat":36.6586072,"lng":15.0712551},{"id":"BR-SI-SUD-103","name":"Lido El Caribe Beach","lat":36.655838,"lng":15.0742683},{"id":"BR-SI-SUD-104","name":"Lido Pachino 104","lat":36.6625721,"lng":15.0629897},{"id":"BR-SI-SUD-105","name":"Lido Pachino 105","lat":36.6624205,"lng":15.0588548},{"id":"BR-SI-SUD-106","name":"Lido Pachino 106","lat":36.6623703,"lng":15.0573495},{"id":"BR-SI-SUD-107","name":"Lido Pachino 107","lat":36.6715233,"lng":15.0529868},{"id":"BR-SI-SUD-108","name":"Lido Pachino 108","lat":36.676334,"lng":15.052518},{"id":"BR-SI-SUD-109","name":"Lido Pachino 109","lat":36.6874745,"lng":15.0447787},{"id":"BR-SI-SUD-110","name":"Lido Baia Granelli","lat":36.7023449,"lng":15.0173409},{"id":"BR-SI-SUD-111","name":"Lido Ispica 111","lat":36.6947354,"lng":14.991252},{"id":"BR-SI-SUD-112","name":"Lido Ispica 112","lat":36.6920034,"lng":14.9717807},{"id":"BR-SI-SUD-113","name":"Lido Ispica 113","lat":36.7194557,"lng":14.9203626},{"id":"BR-SI-SUD-114","name":"Lido Ispica 114","lat":36.7293984,"lng":14.8972906},{"id":"BR-SI-SUD-115","name":"Lido Pozzallo 115","lat":36.7296308,"lng":14.8567838},{"id":"BR-SI-SUD-116","name":"Lido Pozzallo 116","lat":36.7309009,"lng":14.8657211},{"id":"BR-SI-SUD-117","name":"Lido Pozzallo 117","lat":36.7294835,"lng":14.8540189},{"id":"BR-SI-SUD-118","name":"Lido Pozzallo 118","lat":36.7283866,"lng":14.8515864},{"id":"BR-SI-SUD-119","name":"Lido Pozzallo 119","lat":36.728012,"lng":14.849595},{"id":"BR-SI-SUD-120","name":"Lido Pozzallo 120","lat":36.7245322,"lng":14.8443251},{"id":"BR-SI-SUD-121","name":"Largo dei Vespri Siciliani","lat":36.7228952,"lng":14.8358207},{"id":"BR-SI-SUD-122","name":"Carizza","lat":36.7173308,"lng":14.8170245},{"id":"BR-SI-SUD-123","name":"Lido Modica 123","lat":36.7172816,"lng":14.8154821},{"id":"BR-SI-SUD-124","name":"Lido Modica 124","lat":36.7041241,"lng":14.7806025},{"id":"BR-SI-SUD-125","name":"Lido Modica 125","lat":36.7107829,"lng":14.778826},{"id":"BR-SI-SUD-126","name":"Sud","lat":36.7114077,"lng":14.7768655},{"id":"BR-SI-SUD-127","name":"Sud","lat":36.7117829,"lng":14.7766931},{"id":"BR-SI-SUD-128","name":"Lido Scicli 128","lat":36.7159107,"lng":14.7559519},{"id":"BR-SI-SUD-129","name":"Pata Pata","lat":36.7209536,"lng":14.7394419},{"id":"BR-SI-SUD-130","name":"Pappafico","lat":36.7208964,"lng":14.7407661},{"id":"BR-SI-SUD-131","name":"Lido Scicli 131","lat":36.7204967,"lng":14.7390886},{"id":"BR-SI-SUD-132","name":"Lido Scicli 132","lat":36.7278175,"lng":14.6857862},{"id":"BR-SI-SUD-133","name":"Lido Scicli 133","lat":36.7436044,"lng":14.6688174},{"id":"BR-SI-SUD-134","name":"Lido Scicli 134","lat":36.7467023,"lng":14.6624907},{"id":"BR-SI-SUD-135","name":"Aziz","lat":36.7498744,"lng":14.6542708},{"id":"BR-SI-SUD-136","name":"Lido Scicli 136","lat":36.7642816,"lng":14.6324237},{"id":"BR-SI-SUD-137","name":"Boga Mare","lat":36.7812669,"lng":14.5638116},{"id":"BR-SI-SUD-138","name":"Lido Ragusa 138","lat":36.7810832,"lng":14.5642541},{"id":"BR-SI-SUD-139","name":"Baia del Sole","lat":36.7806353,"lng":14.5662111},{"id":"BR-SI-SUD-140","name":"Lido Ragusa 140","lat":36.7806323,"lng":14.5673618},{"id":"BR-SI-SUD-141","name":"Lido Margarita","lat":36.7819589,"lng":14.5585434},{"id":"BR-SI-SUD-142","name":"Lido Ragusa 142","lat":36.7829208,"lng":14.5528688},{"id":"BR-SI-SUD-143","name":"La Ola","lat":36.7824358,"lng":14.5510231},{"id":"BR-SI-SUD-144","name":"Lido Ragusa 144","lat":36.7812737,"lng":14.5302936},{"id":"BR-SI-SUD-145","name":"Centro Balneare della Polizia di Stato Caucana","lat":36.7881118,"lng":14.5156854},{"id":"BR-SI-SUD-146","name":"Anticaglie","lat":36.7866939,"lng":14.497048},{"id":"BR-SI-SUD-147","name":"Lido Santa Croce Camerina 147","lat":36.7891659,"lng":14.492496},{"id":"BR-SI-SUD-148","name":"Torre Scalambri","lat":36.7882938,"lng":14.4927639},{"id":"BR-SI-SUD-149","name":"Lido Santa Croce Camerina 149","lat":36.7911504,"lng":14.4901138},{"id":"BR-SI-SUD-150","name":"Lido Santa Croce Camerina 150","lat":36.8013725,"lng":14.4799832},{"id":"BR-SI-SUD-151","name":"Camping Luminoso","lat":36.8162514,"lng":14.4652874},{"id":"BR-SI-SUD-152","name":"Lido Ragusa 152","lat":36.8169726,"lng":14.4629246},{"id":"BR-SI-SUD-153","name":"Lido Ragusa 153","lat":36.8411712,"lng":14.4557849},{"id":"BR-SI-SUD-154","name":"Athena Resort","lat":36.856951,"lng":14.4492766},{"id":"BR-SI-SUD-155","name":"Traversa 8","lat":36.8586112,"lng":14.4491807},{"id":"BR-SI-SUD-156","name":"Lido Vittoria 156","lat":36.8827966,"lng":14.4374929},{"id":"BR-SI-SUD-157","name":"Riviera Kamarina","lat":36.8839844,"lng":14.4365887},{"id":"BR-SI-SUD-158","name":"Lido Vittoria 158","lat":36.8896129,"lng":14.4298741},{"id":"BR-SI-SUD-159","name":"Lido Vittoria 159","lat":36.8952934,"lng":14.426763},{"id":"BR-SI-SUD-160","name":"Lido Vittoria 160","lat":36.9188559,"lng":14.4083716},{"id":"BR-SI-SUD-161","name":"Lido Vittoria 161","lat":36.9235069,"lng":14.4057235},{"id":"BR-SI-SUD-162","name":"Lido Acate 162","lat":36.9922031,"lng":14.3494835},{"id":"BR-SI-SUD-163","name":"Lido Gela 163","lat":37.0592074,"lng":14.2564596},{"id":"BR-SI-SUD-164","name":"Lido Gela 164","lat":37.0595729,"lng":14.25509},{"id":"BR-SI-SUD-165","name":"Lido Gela 165","lat":37.0601872,"lng":14.2542451},{"id":"BR-SI-SUD-166","name":"Lido Gela 166","lat":37.0609641,"lng":14.2529657},{"id":"BR-SI-SUD-167","name":"Lido Gela 167","lat":37.0614741,"lng":14.2515558},{"id":"BR-SI-SUD-168","name":"Lido Gela 168","lat":37.0650524,"lng":14.2452259},{"id":"BR-SI-SUD-169","name":"Lido Gela 169","lat":37.0659586,"lng":14.2414929},{"id":"BR-SI-SUD-170","name":"Lido Gela 170","lat":37.0706691,"lng":14.2214445},{"id":"BR-SI-SUD-171","name":"Lido TropicoMed","lat":37.0730801,"lng":14.2177047},{"id":"BR-SI-SUD-172","name":"Lido Bcool Beach","lat":37.0733573,"lng":14.2155358},{"id":"BR-SI-SUD-173","name":"Lido Gela 173","lat":37.0761588,"lng":14.210215},{"id":"BR-SI-SUD-174","name":"Lido Gela 174","lat":37.0919639,"lng":14.1676051},{"id":"BR-SI-SUD-175","name":"Lido Gela 175","lat":37.0966202,"lng":14.1527369},{"id":"BR-SI-SUD-176","name":"Lido Butera 176","lat":37.1037405,"lng":14.1139163},{"id":"BR-SI-SUD-177","name":"Accidia Village","lat":37.0945211,"lng":14.1600242},{"id":"BR-SI-SUD-178","name":"Lido Gela 178","lat":37.0973343,"lng":14.1433223},{"id":"BR-SI-SUD-179","name":"Lido Butera 179","lat":37.1070616,"lng":14.0967689},{"id":"BR-SI-SUD-180","name":"Lido Butera 180","lat":37.109633,"lng":14.0811665},{"id":"BR-SI-SUD-181","name":"Eurocamping Due Rocche","lat":37.1095085,"lng":14.0386537},{"id":"BR-SI-SUD-182","name":"Lido Licata 182","lat":37.109671,"lng":14.0048968},{"id":"BR-SI-SUD-183","name":"Lido Licata 183","lat":37.110563,"lng":13.9984885},{"id":"BR-SI-SUD-184","name":"Lido Cona","lat":37.1101907,"lng":13.9947992},{"id":"BR-SI-SUD-185","name":"Lido Licata 185","lat":37.1097851,"lng":13.9838603},{"id":"BR-SI-SUD-186","name":"Lido Licata 186","lat":37.1095536,"lng":13.9760169},{"id":"BR-SI-SUD-187","name":"Lido Licata 187","lat":37.0971564,"lng":13.9303},{"id":"BR-SI-SUD-188","name":"Lido Licata 188","lat":37.0975954,"lng":13.9297713},{"id":"BR-SI-SUD-189","name":"Lido Licata 189","lat":37.0988229,"lng":13.9263939},{"id":"BR-SI-SUD-190","name":"Lido Felix","lat":37.0990484,"lng":13.9220541},{"id":"BR-SI-SUD-191","name":"Lido Licata 191","lat":37.0983964,"lng":13.9162693},{"id":"BR-SI-SUD-192","name":"Lido Licata 192","lat":37.1021166,"lng":13.8841246},{"id":"BR-SI-SUD-193","name":"Hotel Baia D'Oro","lat":37.1031726,"lng":13.8813242},{"id":"BR-SI-SUD-194","name":"Lido Licata 194","lat":37.1034018,"lng":13.8788693},{"id":"BR-SI-SUD-195","name":"Lido Licata 195","lat":37.1035842,"lng":13.8780414},{"id":"BR-SI-SUD-196","name":"Lido Licata 196","lat":37.1040655,"lng":13.8768232},{"id":"BR-SI-SUD-197","name":"Lido Licata 197","lat":37.1051724,"lng":13.8755532},{"id":"BR-SI-SUD-198","name":"Lido Licata 198","lat":37.1096875,"lng":13.8693125},{"id":"BR-SI-SUD-199","name":"Lido Licata 199","lat":37.1154208,"lng":13.859645},{"id":"BR-SI-SUD-200","name":"Lido Licata 200","lat":37.1212005,"lng":13.8562402},{"id":"BR-SI-SUD-201","name":"Lido Licata 201","lat":37.1230359,"lng":13.8543338},{"id":"BR-SI-SUD-202","name":"Lido Licata 202","lat":37.1288618,"lng":13.8491339},{"id":"BR-SI-SUD-203","name":"Lido Licata 203","lat":37.1307598,"lng":13.846961},{"id":"BR-SI-SUD-204","name":"Lido Licata 204","lat":37.1328597,"lng":13.84518},{"id":"BR-SI-SUD-205","name":"Lido Palma di Montechiaro 205","lat":37.1419131,"lng":13.8293406},{"id":"BR-SI-SUD-206","name":"Lido Palma di Montechiaro 206","lat":37.145061,"lng":13.8218267},{"id":"BR-SI-SUD-207","name":"Contrada Facciomare","lat":37.1472225,"lng":13.7804832},{"id":"BR-SI-SUD-208","name":"NC 18","lat":37.149928,"lng":13.7515287},{"id":"BR-SI-SUD-209","name":"Lido Palma di Montechiaro 209","lat":37.1703488,"lng":13.725289},{"id":"BR-SI-SUD-210","name":"Lido Palma di Montechiaro 210","lat":37.1720686,"lng":13.71563},{"id":"BR-SI-SUD-211","name":"Castello di Montechiaro","lat":37.1801172,"lng":13.6971611},{"id":"BR-SI-SUD-212","name":"Piano Carrubba","lat":37.1893542,"lng":13.6819924},{"id":"BR-SI-SUD-213","name":"Lido Agrigento 213","lat":37.1976872,"lng":13.6617475},{"id":"BR-SI-SUD-214","name":"Cala Barcone","lat":37.2191907,"lng":13.6497479},{"id":"BR-SI-SUD-215","name":"Lido Agrigento 215","lat":37.2256254,"lng":13.6444804},{"id":"BR-SI-SUD-216","name":"Lido Agrigento 216","lat":37.23657,"lng":13.6187312},{"id":"BR-SI-SUD-217","name":"Camping Internazionale Nettuno","lat":37.2441829,"lng":13.6137772},{"id":"BR-SI-SUD-218","name":"Blueout Stabilimento Balneare & Beach Bar","lat":37.245275,"lng":13.610923},{"id":"BR-SI-SUD-219","name":"Albachiara","lat":37.2470112,"lng":13.6082592},{"id":"BR-SI-SUD-220","name":"Lido Agrigento 220","lat":37.2512822,"lng":13.6037842},{"id":"BR-SI-SUD-221","name":"Borgo Santuli","lat":37.2534506,"lng":13.6009603},{"id":"BR-SI-SUD-222","name":"Holiday Park","lat":37.2580757,"lng":13.5945008},{"id":"BR-SI-SUD-223","name":"Lido Agrigento 223","lat":37.2602895,"lng":13.587613},{"id":"BR-SI-SUD-224","name":"Tangenziale di Porto Empedocle","lat":37.2870713,"lng":13.5503942},{"id":"BR-SI-SUD-225","name":"Lido Porto Empedocle 225","lat":37.2915848,"lng":13.5094396},{"id":"BR-SI-SUD-226","name":"Lido Porto Empedocle 226","lat":37.2916118,"lng":13.4981941},{"id":"BR-SI-SUD-227","name":"Majata Beach","lat":37.2877998,"lng":13.4815712},{"id":"BR-SI-SUD-228","name":"Scala dei Turchi","lat":37.289984,"lng":13.4727676},{"id":"BR-SI-SUD-229","name":"Faro di Capo Rossello","lat":37.2948906,"lng":13.4480675},{"id":"BR-SI-SUD-230","name":"Faro di Capo Rossello","lat":37.2957956,"lng":13.4486621},{"id":"BR-SI-SUD-231","name":"Lido Lido Rossello 231","lat":37.2984083,"lng":13.4458873},{"id":"BR-SI-SUD-232","name":"Lido Realmonte 232","lat":37.3028231,"lng":13.4346598},{"id":"BR-SI-SUD-233","name":"Lido Realmonte 233","lat":37.3044146,"lng":13.4273398},{"id":"BR-SI-SUD-234","name":"Lido Realmonte 234","lat":37.3163729,"lng":13.4176057},{"id":"BR-SI-SUD-235","name":"Lido Siculiana 235","lat":37.3408636,"lng":13.3833871},{"id":"BR-SI-SUD-236","name":"Lido Siculiana 236","lat":37.3415654,"lng":13.3827335},{"id":"BR-SI-SUD-237","name":"Lido Siculiana 237","lat":37.3488655,"lng":13.3691677},{"id":"BR-SI-SUD-238","name":"Casa Cannicella","lat":37.3598602,"lng":13.346833},{"id":"BR-SI-SUD-239","name":"Lido Siculiana 239","lat":37.3603771,"lng":13.3447523},{"id":"BR-SI-SUD-240","name":"Tropical Beach","lat":37.3809207,"lng":13.3069121},{"id":"BR-SI-SUD-241","name":"Lido Montallegro 241","lat":37.3889814,"lng":13.2964306},{"id":"BR-SI-SUD-242","name":"Lido Garibaldi","lat":37.3914971,"lng":13.2888628},{"id":"BR-SI-SUD-243","name":"Lido Cattolica Eraclea 243","lat":37.3894146,"lng":13.2732382},{"id":"BR-SI-SUD-244","name":"Lido Ribera 244","lat":37.4077554,"lng":13.2686559},{"id":"BR-SI-SUD-245","name":"Lido Ribera 245","lat":37.4098462,"lng":13.2639098},{"id":"BR-SI-SUD-246","name":"Lido Ribera 246","lat":37.4141622,"lng":13.2619006},{"id":"BR-SI-SUD-247","name":"Lido Ribera 247","lat":37.420247,"lng":13.2572864},{"id":"BR-SI-SUD-248","name":"Lido Ribera 248","lat":37.4350976,"lng":13.2372299},{"id":"BR-SI-SUD-249","name":"Lido Ribera 249","lat":37.4526548,"lng":13.2241598},{"id":"BR-SI-SUD-250","name":"Lido Sciacca 250","lat":37.4688705,"lng":13.1944231},{"id":"BR-SI-SUD-251","name":"Lido Sciacca 251","lat":37.484053,"lng":13.1783618},{"id":"BR-SI-SUD-252","name":"Lido Sciacca 252","lat":37.4886283,"lng":13.1744057},{"id":"BR-SI-SUD-253","name":"Lido Sciacca 253","lat":37.4926002,"lng":13.1676895},{"id":"BR-SI-SUD-254","name":"Lido Sciacca 254","lat":37.4967415,"lng":13.1554819},{"id":"BR-SI-SUD-255","name":"Contrada da Lumia","lat":37.4975339,"lng":13.1468813},{"id":"BR-SI-SUD-256","name":"Lido Sciacca 256","lat":37.4959521,"lng":13.1367153},{"id":"BR-SI-SUD-257","name":"Spiaggia Fornace","lat":37.501871,"lng":13.099451},{"id":"BR-SI-SUD-258","name":"Lido Sciacca 258","lat":37.5028602,"lng":13.0492761},{"id":"BR-SI-SUD-259","name":"Lido Sciacca 259","lat":37.5010491,"lng":13.046506},{"id":"BR-SI-SUD-260","name":"Lido Sciacca 260","lat":37.4976953,"lng":13.026818},{"id":"BR-SI-SUD-261","name":"Lido Sciacca 261","lat":37.496529,"lng":13.019346},{"id":"BR-SI-SUD-262","name":"Lido Sciacca 262","lat":37.508341,"lng":13.014715},{"id":"BR-SI-SUD-263","name":"Lido Sciacca 263","lat":37.509001,"lng":13.014534},{"id":"BR-SI-SUD-264","name":"Lido Sciacca 264","lat":37.5354804,"lng":12.9939937},{"id":"BR-SI-SUD-265","name":"Lido Sciacca 265","lat":37.5374611,"lng":12.9921873},{"id":"BR-SI-SUD-266","name":"Lido Menfi 266","lat":37.5442381,"lng":12.9850228},{"id":"BR-SI-SUD-267","name":"Lido Menfi 267","lat":37.5650341,"lng":12.9594985},{"id":"BR-SI-SUD-268","name":"Lido Menfi 268","lat":37.567573,"lng":12.9557686},{"id":"BR-SI-SUD-269","name":"Lido Menfi 269","lat":37.5742414,"lng":12.9352634},{"id":"BR-SI-SUD-270","name":"Lido Menfi 270","lat":37.5766714,"lng":12.9212523},{"id":"BR-SI-SUD-271","name":"Lido Menfi 271","lat":37.5759871,"lng":12.9094408},{"id":"BR-SI-SUD-272","name":"Roxy","lat":37.5764083,"lng":12.9069643},{"id":"BR-SI-SUD-273","name":"Lido Castelvetrano 273","lat":37.5833295,"lng":12.8654409},{"id":"BR-SI-SUD-274","name":"sentiero ovest","lat":37.5829182,"lng":12.8569684},{"id":"BR-SI-SUD-275","name":"Lido Castelvetrano 275","lat":37.5816031,"lng":12.8459654},{"id":"BR-SI-SUD-276","name":"Battistero Bizantino","lat":37.5829054,"lng":12.8188961},{"id":"BR-SI-SUD-277","name":"Lido Castelvetrano 277","lat":37.5823312,"lng":12.810808},{"id":"BR-SI-SUD-278","name":"Lido Castelvetrano 278","lat":37.5812337,"lng":12.8035137},{"id":"BR-SI-SUD-279","name":"Lido Castelvetrano 279","lat":37.5814826,"lng":12.7923014},{"id":"BR-SI-SUD-280","name":"Contrada Manicalunga 119","lat":37.5810668,"lng":12.7823219},{"id":"BR-SI-SUD-281","name":"Lido Selene","lat":37.5797559,"lng":12.7689709},{"id":"BR-SI-SUD-282","name":"Lido","lat":37.5763669,"lng":12.7511261},{"id":"BR-SI-SUD-283","name":"Lido Campobello di Mazara 283","lat":37.5708687,"lng":12.7290663},{"id":"BR-SI-SUD-284","name":"Lido Campobello di Mazara 284","lat":37.5677928,"lng":12.7192603},{"id":"BR-SI-SUD-285","name":"Lido Campobello di Mazara 285","lat":37.5596836,"lng":12.6791561},{"id":"BR-SI-SUD-286","name":"Lido Mazara del Vallo 286","lat":37.5762088,"lng":12.652337},{"id":"BR-SI-SUD-287","name":"Lido Campobello di Mazara 287","lat":37.5744641,"lng":12.6564607},{"id":"BR-SI-SUD-288","name":"Lido Costanza","lat":37.5813175,"lng":12.6478796},{"id":"BR-SI-SUD-289","name":"Lido Mazara del Vallo 289","lat":37.5822747,"lng":12.6470279},{"id":"BR-SI-SUD-290","name":"Funduq","lat":37.5921963,"lng":12.6389001},{"id":"BR-SI-SUD-291","name":"Kikis","lat":37.6366503,"lng":12.6128837},{"id":"BR-SI-SUD-292","name":"Lido Mazara del Vallo 292","lat":37.6607823,"lng":12.5675231},{"id":"BR-SI-SUD-293","name":"Oasi Lido","lat":37.662588,"lng":12.5612878},{"id":"BR-SI-SUD-294","name":"Lido Mazara del Vallo 294","lat":37.6611676,"lng":12.5666838},{"id":"BR-SI-SUD-295","name":"Lido Mazara del Vallo 295","lat":37.659802,"lng":12.568869},{"id":"BR-SI-SUD-296","name":"Lido Mazara del Vallo 296","lat":37.6619686,"lng":12.5637264},{"id":"BR-SI-SUD-297","name":"Lido Mazara del Vallo 297","lat":37.6632776,"lng":12.5582832},{"id":"BR-SI-SUD-298","name":"Lido Mazara del Vallo 298","lat":37.6634638,"lng":12.5551935},{"id":"BR-SI-SUD-299","name":"Lido Caiman Beach","lat":37.6635017,"lng":12.5543289},{"id":"BR-SI-SUD-300","name":"Lido Sole Rosso","lat":37.6635056,"lng":12.552803},{"id":"BR-SI-SUD-301","name":"Lido Mazara del Vallo 301","lat":37.661598,"lng":12.5331496},{"id":"BR-SI-SUD-302","name":"Lido Petrosino 302","lat":37.6871299,"lng":12.4939785},{"id":"BR-SI-SUD-303","name":"Lido Petrosino 303","lat":37.6880891,"lng":12.4927085},{"id":"BR-SI-SUD-304","name":"Lido Petrosino 304","lat":37.7010052,"lng":12.4747885},{"id":"BR-SI-SUD-305","name":"Lido Petrosino 305","lat":37.7306119,"lng":12.4708913},{"id":"BR-SI-SUD-306","name":"Lido Marsala 306","lat":37.7378804,"lng":12.473833},{"id":"BR-SI-SUD-307","name":"Lido Marsala 307","lat":37.7392832,"lng":12.4728338},{"id":"BR-SI-SUD-308","name":"Lido Marsala 308","lat":37.7404448,"lng":12.4727675},{"id":"BR-SI-SUD-309","name":"Tibuoron Beach","lat":37.7419195,"lng":12.4724178},{"id":"BR-SI-SUD-310","name":"Lido Marsala 310","lat":37.7472094,"lng":12.4702552},{"id":"BR-SI-SUD-311","name":"Lido Marsala 311","lat":37.7524946,"lng":12.4665194},{"id":"BR-SI-SUD-312","name":"Lido Marsala 312","lat":37.7583047,"lng":12.4605577},{"id":"BR-SI-SUD-313","name":"Lido Marsala 313","lat":37.856102,"lng":12.478044},{"id":"BR-SI-SUD-314","name":"Italia","lat":37.8994441,"lng":12.4478568},{"id":"BR-SI-SUD-315","name":"Lido Marsala 315","lat":37.9309609,"lng":12.4790368},{"id":"BR-SI-SUD-316","name":"Lido Marsala 316","lat":37.9328657,"lng":12.4803695},{"id":"BR-GE-GEN-001","name":"Lido Genova 001","lat":44.3858159,"lng":9.0067806},{"id":"BR-GE-GEN-002","name":"Lido Genova 002","lat":44.3855337,"lng":9.0063878},{"id":"BR-GE-GEN-003","name":"Gelateria Priaruggia","lat":44.3875636,"lng":8.9976706},{"id":"BR-GE-GEN-004","name":"Lido Genova 004","lat":44.3878581,"lng":8.9949533},{"id":"BR-GE-GEN-005","name":"Bagni Liggia","lat":44.3910932,"lng":8.9889006},{"id":"BR-GE-GEN-006","name":"Lido Genova 006","lat":44.3913695,"lng":8.9814895},{"id":"BR-GE-GEN-007","name":"Bagni Santa Chiara","lat":44.3898688,"lng":8.9775765},{"id":"BR-GE-GEN-008","name":"Lido Genova 008","lat":44.3898419,"lng":8.9741049},{"id":"BR-GE-GEN-009","name":"Lido Genova 009","lat":44.3901697,"lng":8.9677496},{"id":"BR-GE-GEN-010","name":"Bagni Nuovo Lido","lat":44.3909085,"lng":8.9680665},{"id":"BR-GE-GEN-011","name":"Bisù","lat":44.3912103,"lng":8.9657387},{"id":"BR-GE-GEN-012","name":"Lido Genova 012","lat":44.3927282,"lng":8.9627638},{"id":"BR-GE-GEN-013","name":"Stabilimento Circolo Unificato dell'Esercito","lat":44.3923215,"lng":8.9607461},{"id":"BR-GE-GEN-014","name":"Stabilimento Circolo Unificato dell'Esercito","lat":44.3920554,"lng":8.9608556},{"id":"BR-GE-GEN-015","name":"Lido Genova 015","lat":44.392088,"lng":8.960175},{"id":"BR-GE-GEN-016","name":"Il Veliero","lat":44.3913034,"lng":8.9560961},{"id":"BR-GE-GEN-017","name":"Mentelocale","lat":44.3921308,"lng":8.9533038},{"id":"BR-GE-GEN-018","name":"Bagni Pizzeria Last Beach","lat":44.4248309,"lng":8.8172119},{"id":"BR-GE-GEN-019","name":"Lido Genova 019","lat":44.427321,"lng":8.753834},{"id":"BR-GE-GEN-020","name":"Lido Genova 020","lat":44.3852653,"lng":9.0149147},{"id":"BR-NA-NAP-001","name":"Parco sommerso di Gaiola","lat":40.7926327,"lng":14.1876599},{"id":"BR-NA-NAP-002","name":"Lido Napoli 002","lat":40.7948977,"lng":14.1915744},{"id":"BR-NA-NAP-003","name":"Lido Napoli 003","lat":40.7960523,"lng":14.1958437},{"id":"BR-NA-NAP-004","name":"Baia delle Rocce Verdi","lat":40.7975102,"lng":14.1988122},{"id":"BR-NA-NAP-005","name":"Posillipo","lat":40.8185324,"lng":14.2128063},{"id":"BR-NA-NAP-006","name":"Bagno Sirena","lat":40.8193978,"lng":14.2137749},{"id":"BR-NA-NAP-007","name":"Lido Napoli 007","lat":40.8219993,"lng":14.2157755},{"id":"BR-NA-NAP-008","name":"Lido Napoli 008","lat":40.8228888,"lng":14.2192181},{"id":"BR-NA-NAP-009","name":"Lido Napoli 009","lat":40.8245684,"lng":14.221032},{"id":"BR-NA-NAP-010","name":"Lido Napoli 010","lat":40.8313765,"lng":14.2410771},{"id":"BR-NA-NAP-011","name":"Lido Portici 011","lat":40.8177522,"lng":14.3266218},{"id":"BR-NA-NAP-012","name":"Lido Portici 012","lat":40.8063078,"lng":14.3357793},{"id":"BR-NA-NAP-013","name":"Stazione Zoologica Anton Dohrn - Centro Ricerche Tartarughe Marine (Turtle Point)","lat":40.8047602,"lng":14.3395885},{"id":"BR-NA-NAP-014","name":"Stazione Zoologica Anton Dohrn - Centro Ricerche Tartarughe Marine (Turtle Point)","lat":40.8041399,"lng":14.3401168},{"id":"BR-NA-NAP-015","name":"Lido Ercolano 015","lat":40.7962977,"lng":14.3487091},{"id":"BR-NA-NAP-016","name":"Lido Ercolano 016","lat":40.7962408,"lng":14.3490702},{"id":"BR-NA-NAP-017","name":"Lido Torre del Greco 017","lat":40.7916108,"lng":14.3572436},{"id":"BR-NA-NAP-018","name":"Lido Torre del Greco 018","lat":40.7911487,"lng":14.3581204},{"id":"BR-NA-NAP-019","name":"Lido Torre del Greco 019","lat":40.7907997,"lng":14.3588182},{"id":"BR-NA-NAP-020","name":"Taverna 'e Mare","lat":40.784507,"lng":14.364067},{"id":"BR-NA-NAP-021","name":"Villa de Ruggiero","lat":40.7733612,"lng":14.3799891},{"id":"BR-NA-NAP-022","name":"Lido Miramare","lat":40.7659196,"lng":14.3895381},{"id":"BR-NA-NAP-023","name":"Lido Torre del Greco 023","lat":40.7646429,"lng":14.3907348},{"id":"BR-NA-NAP-024","name":"Lido La Choniglia","lat":40.7633359,"lng":14.3920913},{"id":"BR-NA-NAP-025","name":"Lido Torre del Greco 025","lat":40.762677,"lng":14.3926591},{"id":"BR-NA-NAP-026","name":"Macelleria Pescea'mmare","lat":40.7619559,"lng":14.3937044},{"id":"BR-NA-NAP-027","name":"Lido Gelsomino","lat":40.7607717,"lng":14.3945024},{"id":"BR-NA-NAP-028","name":"Ristorante Ciro a Mare","lat":40.7597731,"lng":14.3957616},{"id":"BR-NA-NAP-029","name":"Lido Torre del Greco 029","lat":40.7571432,"lng":14.4043928},{"id":"BR-NA-NAP-030","name":"Torre Saracena","lat":40.7525481,"lng":14.4142251},{"id":"BR-NA-NAP-031","name":"Club Cypraea","lat":40.7518386,"lng":14.4245838},{"id":"BR-NA-NAP-032","name":"Lido Torre Annunziata 032","lat":40.7554118,"lng":14.4390766},{"id":"BR-NA-NAP-033","name":"Lido Eldorado","lat":40.7550333,"lng":14.4408201},{"id":"BR-NA-NAP-034","name":"Rena Nera Beach","lat":40.7544288,"lng":14.440957},{"id":"BR-NA-NAP-035","name":"Lido Risorgimento","lat":40.7532606,"lng":14.44159},{"id":"BR-NA-NAP-036","name":"Caffetteria Gelateria Risorgimento","lat":40.7543617,"lng":14.4413907},{"id":"BR-NA-NAP-037","name":"Rovigliano seafront pathway","lat":40.7348325,"lng":14.467078},{"id":"BR-NA-NAP-038","name":"Stabia seafront footway","lat":40.7111151,"lng":14.4795118},{"id":"BR-NA-NAP-039","name":"Stabia seafront footway","lat":40.7088166,"lng":14.4805075},{"id":"BR-NA-NAP-040","name":"Lido Castellammare di Stabia 040","lat":40.7015109,"lng":14.4820005},{"id":"BR-NA-NAP-041","name":"Lido Castellammare di Stabia 041","lat":40.6972899,"lng":14.4807814},{"id":"BR-NA-NAP-042","name":"Lido Castellammare di Stabia 042","lat":40.6973959,"lng":14.4814382},{"id":"BR-NA-NAP-043","name":"Lido Castellammare di Stabia 043","lat":40.6911645,"lng":14.4627},{"id":"BR-NA-NAP-044","name":"Lido Castellammare di Stabia 044","lat":40.6908348,"lng":14.4607513},{"id":"BR-NA-NAP-045","name":"Lido Castellammare di Stabia 045","lat":40.6889876,"lng":14.4567072},{"id":"BR-NA-NAP-046","name":"Lido Castellammare di Stabia 046","lat":40.6888876,"lng":14.4564337},{"id":"BR-NA-NAP-047","name":"Lido Castellammare di Stabia 047","lat":40.6885519,"lng":14.4553134},{"id":"BR-NA-NAP-048","name":"Lido Castellammare di Stabia 048","lat":40.6881715,"lng":14.4542712},{"id":"BR-NA-NAP-049","name":"Lido Castellammare di Stabia 049","lat":40.6883047,"lng":14.4539252},{"id":"BR-NA-NAP-050","name":"Lido Castellammare di Stabia 050","lat":40.6881428,"lng":14.4534638},{"id":"BR-NA-NAP-051","name":"Lido Castellammare di Stabia 051","lat":40.6862955,"lng":14.4466738},{"id":"BR-NA-NAP-052","name":"Lido Castellammare di Stabia 052","lat":40.685066,"lng":14.4448731},{"id":"BR-NA-NAP-053","name":"Lido Vico Equense 053","lat":40.6828279,"lng":14.4410347},{"id":"BR-NA-NAP-054","name":"Lido Vico Equense 054","lat":40.6825192,"lng":14.4400112},{"id":"BR-NA-NAP-055","name":"Lido Vico Equense 055","lat":40.6783332,"lng":14.4371326},{"id":"BR-NA-NAP-056","name":"Lido Vico Equense 056","lat":40.6732105,"lng":14.4354225},{"id":"BR-NA-NAP-057","name":"Lido Vico Equense 057","lat":40.6685724,"lng":14.431748},{"id":"BR-NA-NAP-058","name":"Lido Da Vittorio","lat":40.6657216,"lng":14.4273052},{"id":"BR-NA-NAP-059","name":"Lido Vico Equense 059","lat":40.661514,"lng":14.4212947},{"id":"BR-NA-NAP-060","name":"Lido Vico Equense 060","lat":40.6613489,"lng":14.4212054},{"id":"BR-NA-NAP-061","name":"Lido Vico Equense 061","lat":40.661191,"lng":14.4206825},{"id":"BR-NA-NAP-062","name":"Lido Vico Equense 062","lat":40.6610628,"lng":14.4196284},{"id":"BR-NA-NAP-063","name":"Lido Vico Equense 063","lat":40.6608256,"lng":14.419213},{"id":"BR-NA-NAP-064","name":"Lido Vico Equense 064","lat":40.6600514,"lng":14.4171212},{"id":"BR-NA-NAP-065","name":"Lido Vico Equense 065","lat":40.659331,"lng":14.4147828},{"id":"BR-NA-NAP-066","name":"Lido Vico Equense 066","lat":40.6596054,"lng":14.4131344},{"id":"BR-NA-NAP-067","name":"Lido Vico Equense 067","lat":40.6599932,"lng":14.4112192},{"id":"BR-NA-NAP-068","name":"Lido Meta 068","lat":40.6477519,"lng":14.4079682},{"id":"BR-NA-NAP-069","name":"Lido Meta 069","lat":40.6466667,"lng":14.4077778},{"id":"BR-NA-NAP-070","name":"Bagni Tina","lat":40.640014,"lng":14.4031409},{"id":"BR-NA-NAP-071","name":"Lido Piano di Sorrento 071","lat":40.6390803,"lng":14.4026465},{"id":"BR-NA-NAP-072","name":"Antico Bagno Nettuno","lat":40.6395459,"lng":14.4019101},{"id":"BR-NA-NAP-073","name":"Katari","lat":40.63873,"lng":14.3998314},{"id":"BR-NA-NAP-074","name":"Lido Sant'Agnello 074","lat":40.6342579,"lng":14.3894037},{"id":"BR-NA-NAP-075","name":"Lido Arienzo 075","lat":40.6278031,"lng":14.4869629},{"id":"BR-NA-NAP-076","name":"Lido Arienzo 076","lat":40.62676,"lng":14.495942},{"id":"BR-NA-NAP-077","name":"Lido Massa Lubrense 077","lat":40.585832,"lng":14.327577},{"id":"BR-NA-NAP-078","name":"Lido Massa Lubrense 078","lat":40.5692327,"lng":14.3246728},{"id":"BR-NA-NAP-079","name":"Lido Massa Lubrense 079","lat":40.5743558,"lng":14.3410658},{"id":"BR-NA-NAP-080","name":"Lido Massa Lubrense 080","lat":40.5805825,"lng":14.3501155},{"id":"BR-NA-NAP-081","name":"La Conchiglia","lat":40.631668,"lng":14.5968708},{"id":"BR-NA-NAP-082","name":"Lido Pogerola 082","lat":40.6323902,"lng":14.5979643},{"id":"BR-NA-NAP-083","name":"Silver Moon","lat":40.633814,"lng":14.60395},{"id":"BR-NA-NAP-084","name":"Lido Atrani 084","lat":40.6355476,"lng":14.6085605},{"id":"BR-NA-NAP-085","name":"Lido Ravello 085","lat":40.636932,"lng":14.6109474},{"id":"BR-NA-NAP-086","name":"Lido Minori 086","lat":40.6492599,"lng":14.6284797},{"id":"BR-NA-NAP-087","name":"Lido la Bussola","lat":40.6490979,"lng":14.6364838},{"id":"BR-NA-NAP-088","name":"Lido Maiori 088","lat":40.6489996,"lng":14.6371597},{"id":"BR-NA-NAP-089","name":"Lido Maiori 089","lat":40.6489166,"lng":14.6376227},{"id":"BR-NA-NAP-090","name":"Lido Maiori 090","lat":40.6487896,"lng":14.6381318},{"id":"BR-NA-NAP-091","name":"Euro Pizza Major","lat":40.6486398,"lng":14.6388199},{"id":"BR-NA-NAP-092","name":"Tony's","lat":40.6483663,"lng":14.6397021},{"id":"BR-NA-NAP-093","name":"Lido Maiori 093","lat":40.6474613,"lng":14.6417903},{"id":"BR-NA-NAP-094","name":"Lido Maiori 094","lat":40.6465817,"lng":14.6444295},{"id":"BR-NA-NAP-095","name":"Residence Due Torri","lat":40.644487,"lng":14.6497412},{"id":"BR-NA-NAP-096","name":"Lido Salerno 096","lat":40.671135,"lng":14.7352601},{"id":"BR-NA-NAP-097","name":"Lido Salerno 097","lat":40.6774821,"lng":14.7560555},{"id":"BR-NA-NAP-098","name":"Ristorante La Conchiglia","lat":40.671783,"lng":14.776273},{"id":"BR-NA-NAP-099","name":"Lido Salerno 099","lat":40.6676999,"lng":14.7850955},{"id":"BR-NA-NAP-100","name":"Lido Salerno 100","lat":40.6671069,"lng":14.7861895},{"id":"BR-NA-NAP-101","name":"Lido Salerno 101","lat":40.6657203,"lng":14.7882441},{"id":"BR-NA-NAP-102","name":"Bar Queen's","lat":40.6600224,"lng":14.7977683},{"id":"BR-NA-NAP-103","name":"Lido Salerno 103","lat":40.6587843,"lng":14.7999335},{"id":"BR-NA-NAP-104","name":"Lido Salerno 104","lat":40.6593345,"lng":14.7990552},{"id":"BR-NA-NAP-105","name":"Bar Queen's","lat":40.6596631,"lng":14.7986098},{"id":"BR-NA-NAP-106","name":"Mr. Crocche'","lat":40.657839,"lng":14.8010717},{"id":"BR-NA-NAP-107","name":"Lido Salerno 107","lat":40.6576743,"lng":14.8008773},{"id":"BR-NA-NAP-108","name":"Lido Salerno 108","lat":40.6569412,"lng":14.8022262},{"id":"BR-NA-NAP-109","name":"Miramare","lat":40.6559829,"lng":14.8036348},{"id":"BR-NA-NAP-110","name":"Lido Salerno 110","lat":40.6543913,"lng":14.8054702},{"id":"BR-NA-NAP-111","name":"Lido Salerno 111","lat":40.6539447,"lng":14.8056007},{"id":"BR-NA-NAP-112","name":"Asl Salerno Via Leucosia","lat":40.6529335,"lng":14.8079733},{"id":"BR-NA-NAP-113","name":"Lido Salerno 113","lat":40.6516607,"lng":14.8097652},{"id":"BR-SAR-SUD-001","name":"Vista sul Capo San'Elia","lat":39.1833931,"lng":9.161344399999999},{"id":"BR-SAR-SUD-002","name":"Lido Cagliari 002","lat":39.186489,"lng":9.1517656},{"id":"BR-SAR-SUD-003","name":"Lido Cagliari 003","lat":39.185452,"lng":9.1445324},{"id":"BR-SAR-SUD-004","name":"Lido Cagliari 004","lat":39.1950149,"lng":9.1595064},{"id":"BR-SAR-SUD-005","name":"Lido Cagliari 005","lat":39.19671659999999,"lng":9.1597004},{"id":"BR-SAR-SUD-006","name":"Lido Cagliari 006","lat":39.19838,"lng":9.160127},{"id":"BR-SAR-SUD-007","name":"Lido Cagliari 007","lat":39.1998158,"lng":9.160602899999999},{"id":"BR-SAR-SUD-008","name":"Il Lido","lat":39.2012288,"lng":9.1617886},{"id":"BR-SAR-SUD-009","name":"Spiaggia del Poetto","lat":39.20292,"lng":9.163281999999999},{"id":"BR-SAR-SUD-010","name":"Lido Cagliari 010","lat":39.2043879,"lng":9.1640155},{"id":"BR-SAR-SUD-011","name":"Spiaggia del Poetto","lat":39.2050086,"lng":9.1652477},{"id":"BR-SAR-SUD-012","name":"Spiaggia del Poetto","lat":39.2056908,"lng":9.1658096},{"id":"BR-SAR-SUD-013","name":"Lido Cagliari 013","lat":39.2066311,"lng":9.1659547},{"id":"BR-SAR-SUD-014","name":"Stablimento Balneare Esercito","lat":39.2074749,"lng":9.166639199999999},{"id":"BR-SAR-SUD-015","name":"Poetto beach","lat":39.2076785,"lng":9.1685277},{"id":"BR-SAR-SUD-016","name":"Spiaggia del Poetto","lat":39.2090962,"lng":9.169503299999999},{"id":"BR-SAR-SUD-017","name":"Spiaggia del Poetto","lat":39.2094752,"lng":9.1705796},{"id":"BR-SAR-SUD-018","name":"Spiaggia del Poetto","lat":39.2119564,"lng":9.173869},{"id":"BR-SAR-SUD-019","name":"Spiaggia del Poetto","lat":39.2126467,"lng":9.1745766},{"id":"BR-SAR-SUD-020","name":"Lido Cagliari 020","lat":39.2138551,"lng":9.175552099999999},{"id":"BR-SAR-SUD-021","name":"Lido Cagliari 021","lat":39.2147415,"lng":9.1777523},{"id":"BR-SAR-SUD-022","name":"Ottagono","lat":39.2157491,"lng":9.179335499999999},{"id":"BR-SAR-SUD-023","name":"Lido Quartu Sant'elena 023","lat":39.2177215,"lng":9.1824893},{"id":"BR-SAR-SUD-024","name":"Lido Quartu Sant'elena 024","lat":39.2179812,"lng":9.1834101},{"id":"BR-SAR-SUD-025","name":"Stabilimento balneare dei Vigili del Fuoco di Cagliari","lat":39.2196485,"lng":9.1866341},{"id":"BR-SAR-SUD-026","name":"Stabilimento balneare della Guardia di Finanza","lat":39.2202479,"lng":9.1879855},{"id":"BR-SAR-SUD-027","name":"Bikini Poetto Beach Club","lat":39.2209692,"lng":9.189622},{"id":"BR-SAR-SUD-028","name":"Stabilimento Balneare Marlin","lat":39.2221519,"lng":9.192945199999999},{"id":"BR-SAR-SUD-029","name":"Spiaggia del Poetto","lat":39.2257079,"lng":9.204965099999999},{"id":"BR-SAR-SUD-030","name":"Passaggio a Nord Ovest","lat":39.2269766,"lng":9.2090132},{"id":"BR-SAR-SUD-031","name":"Blue Sky","lat":39.2276252,"lng":9.2109224},{"id":"BR-SAR-SUD-032","name":"Spiaggia del Poetto","lat":39.2278573,"lng":9.2164283},{"id":"BR-SAR-SUD-033","name":"Spiaggia del Poetto","lat":39.2281627,"lng":9.221774199999999},{"id":"BR-SAR-SUD-034","name":"Lido Quartu Sant'elena 034","lat":39.2139666,"lng":9.2766839},{"id":"BR-SAR-SUD-035","name":"Lido Quartu Sant'elena 035","lat":39.2139562,"lng":9.2875747},{"id":"BR-SAR-SUD-036","name":"Lido Quartu Sant'elena 036","lat":39.2138493,"lng":9.2923419},{"id":"BR-SAR-SUD-037","name":"Lido Quartu Sant'elena 037","lat":39.2135662,"lng":9.2957286},{"id":"BR-SAR-SUD-038","name":"Lido Quartu Sant'elena 038","lat":39.2135517,"lng":9.297656},{"id":"BR-SAR-SUD-039","name":"Lido Quartu Sant'elena 039","lat":39.2125625,"lng":9.2995004},{"id":"BR-SAR-SUD-040","name":"Lido Quartu Sant'elena 040","lat":39.2050437,"lng":9.318491999999999},{"id":"BR-SAR-SUD-041","name":"Lido Quartu Sant'elena 041","lat":39.2010291,"lng":9.323546},{"id":"BR-SAR-SUD-042","name":"Lido Quartu Sant'elena 042","lat":39.1980102,"lng":9.323901},{"id":"BR-SAR-SUD-043","name":"Lido Quartu Sant'elena 043","lat":39.1991999,"lng":9.325774},{"id":"BR-SAR-SUD-044","name":"Lido Quartu Sant'elena 044","lat":39.1791715,"lng":9.3551199},{"id":"BR-SAR-SUD-045","name":"Lido Quartu Sant'elena 045","lat":39.165837,"lng":9.3810944},{"id":"BR-SAR-SUD-046","name":"Lido Quartu Sant'elena 046","lat":39.1619366,"lng":9.3853216},{"id":"BR-SAR-SUD-047","name":"Lido Sinnai 047","lat":39.1446873,"lng":9.4051747},{"id":"BR-SAR-SUD-048","name":"Su guardianu mannu","lat":39.1341278,"lng":9.4189629},{"id":"BR-SAR-SUD-049","name":"Lido Sinnai 049","lat":39.1351139,"lng":9.4271832},{"id":"BR-SAR-SUD-050","name":"Lido Sinnai 050","lat":39.134353,"lng":9.4298813},{"id":"BR-SAR-SUD-051","name":"Lido Sinnai 051","lat":39.1274464,"lng":9.440885699999999},{"id":"BR-SAR-SUD-052","name":"Lido Villasimius 052","lat":39.1260625,"lng":9.4451875},{"id":"BR-SAR-SUD-053","name":"Lido Villasimius 053","lat":39.1300673,"lng":9.4527359},{"id":"BR-SAR-SUD-054","name":"Lido Villasimius 054","lat":39.1302629,"lng":9.4563167},{"id":"BR-SAR-SUD-055","name":"Lido Villasimius 055","lat":39.1324233,"lng":9.4724072},{"id":"BR-SAR-SUD-056","name":"Lido Villasimius 056","lat":39.1327983,"lng":9.4742532},{"id":"BR-SAR-SUD-057","name":"Lido Villasimius 057","lat":39.135788,"lng":9.484674799999999},{"id":"BR-SAR-SUD-058","name":"Lido Villasimius 058","lat":39.1352575,"lng":9.4884056},{"id":"BR-SAR-SUD-059","name":"Vico I del Porto","lat":39.1327559,"lng":9.4963204},{"id":"BR-SAR-SUD-060","name":"Lido Villasimius 060","lat":39.1286594,"lng":9.506114199999999},{"id":"BR-SAR-SUD-061","name":"Lido Villasimius 061","lat":39.129904,"lng":9.504971},{"id":"BR-SAR-SUD-062","name":"Lido Villasimius 062","lat":39.1200936,"lng":9.509230299999999},{"id":"BR-SAR-SUD-063","name":"Lido Villasimius 063","lat":39.1160744,"lng":9.505268599999999},{"id":"BR-SAR-SUD-064","name":"Lido Villasimius 064","lat":39.110581,"lng":9.50534},{"id":"BR-SAR-SUD-065","name":"Lido Villasimius 065","lat":39.1066166,"lng":9.5103259},{"id":"BR-SAR-SUD-066","name":"Lido Villasimius 066","lat":39.0956726,"lng":9.5229501},{"id":"BR-SAR-SUD-067","name":"Lido Villasimius 067","lat":39.098191,"lng":9.5221766},{"id":"BR-SAR-SUD-068","name":"Cava Usai","lat":39.10721849999999,"lng":9.518680699999999},{"id":"BR-SAR-SUD-069","name":"Torre di Porto Giunco","lat":39.1101635,"lng":9.523274599999999},{"id":"BR-SAR-SUD-070","name":"Lido Villasimius 070","lat":39.1110306,"lng":9.5205264},{"id":"BR-SAR-SUD-071","name":"Lido Villasimius 071","lat":39.1127891,"lng":9.518607099999999},{"id":"BR-SAR-SUD-072","name":"Lido Villasimius 072","lat":39.1196844,"lng":9.5222085},{"id":"BR-SAR-SUD-073","name":"VOI Tanka Resort","lat":39.1226195,"lng":9.524847099999999},{"id":"BR-SAR-SUD-074","name":"Sub Center Tanka","lat":39.1253919,"lng":9.5267056},{"id":"BR-SAR-SUD-075","name":"Lido Villasimius 075","lat":39.1273981,"lng":9.5294966},{"id":"BR-SAR-SUD-076","name":"Lido Villasimius 076","lat":39.1274422,"lng":9.5298122},{"id":"BR-SAR-SUD-077","name":"Lido Villasimius 077","lat":39.1301442,"lng":9.5350395},{"id":"BR-SAR-SUD-078","name":"Lido Villasimius 078","lat":39.1329623,"lng":9.5386864},{"id":"BR-SAR-SUD-079","name":"Lido Villasimius 079","lat":39.1352452,"lng":9.5530358},{"id":"BR-SAR-SUD-080","name":"Lido Villasimius 080","lat":39.1377027,"lng":9.5583777},{"id":"BR-SAR-SUD-081","name":"Lido Villasimius 081","lat":39.1466438,"lng":9.5655536},{"id":"BR-SAR-SUD-082","name":"Lido Castiadas 082","lat":39.1556256,"lng":9.5661817},{"id":"BR-SAR-SUD-083","name":"Tamatete","lat":39.1902443,"lng":9.563208699999999},{"id":"BR-SAR-SUD-084","name":"Località Cala Sinzias","lat":39.1952688,"lng":9.5627189},{"id":"BR-SAR-SUD-085","name":"Str. per Monte Turno","lat":39.2084543,"lng":9.5655784},{"id":"BR-SAR-SUD-086","name":"Nuraghe Monte Turno","lat":39.2083109,"lng":9.567849899999999},{"id":"BR-SAR-SUD-087","name":"Località Sant'Elmo","lat":39.2187427,"lng":9.5682194},{"id":"BR-SAR-SUD-088","name":"Località Sant'Elmo","lat":39.220448,"lng":9.5698029},{"id":"BR-SAR-SUD-089","name":"Località Sant'Elmo","lat":39.2225562,"lng":9.5683496},{"id":"BR-SAR-SUD-090","name":"Spiaggia di Santa Giusta","lat":39.2275269,"lng":9.5685077},{"id":"BR-SAR-SUD-091","name":"Lido Costa Rei 091","lat":39.2344051,"lng":9.5712418},{"id":"BR-SAR-SUD-092","name":"Lido Costa Rei 092","lat":39.2427152,"lng":9.5699617},{"id":"BR-SAR-SUD-093","name":"Lido Costa Rei 093","lat":39.2455351,"lng":9.5719453},{"id":"BR-SAR-SUD-094","name":"Lido Pula 094","lat":39.0058208,"lng":9.0235151},{"id":"BR-SAR-SUD-095","name":"Lido Pula 095","lat":39.003121,"lng":9.0244427},{"id":"BR-SAR-SUD-096","name":"Lido Pula 096","lat":38.9961715,"lng":9.017162899999999},{"id":"BR-SAR-SUD-097","name":"Lido Pula 097","lat":38.9939297,"lng":9.015441599999999},{"id":"BR-SAR-SUD-098","name":"Lido Pula 098","lat":38.9910238,"lng":9.015020999999999},{"id":"BR-SAR-SUD-099","name":"Lido Pula 099","lat":38.9905706,"lng":9.0134591},{"id":"BR-SAR-SUD-100","name":"Lido Pula 100","lat":38.9864301,"lng":8.9992983},{"id":"BR-SAR-SUD-101","name":"Lido Pula 101","lat":38.9626053,"lng":8.9753174},{"id":"BR-SAR-SUD-102","name":"Camping Cala D'Ostia","lat":38.9571586,"lng":8.9683225},{"id":"BR-SAR-SUD-103","name":"Comunione Pineta is Morus","lat":38.9542933,"lng":8.963451},{"id":"BR-SAR-SUD-104","name":"Comunione Pineta is Morus","lat":38.9458727,"lng":8.952430399999999},{"id":"BR-SAR-SUD-105","name":"Comunione Pineta is Morus","lat":38.9444376,"lng":8.9503752},{"id":"BR-SAR-SUD-106","name":"Lido Pula 106","lat":38.935158,"lng":8.9371171},{"id":"BR-SAR-SUD-107","name":"Hotel Il Castello","lat":38.9312682,"lng":8.9309195},{"id":"BR-SAR-SUD-108","name":"Lido Pula 108","lat":38.9299899,"lng":8.9280408},{"id":"BR-SAR-SUD-109","name":"Lido Pula 109","lat":38.92962869999999,"lng":8.9273431},{"id":"BR-SAR-SUD-110","name":"Comunione Viale Dei Pini","lat":38.9281258,"lng":8.9249814},{"id":"BR-SAR-SUD-111","name":"Lido Pula 111","lat":38.9227902,"lng":8.917843699999999},{"id":"BR-SAR-SUD-112","name":"Lido Pula 112","lat":38.9208206,"lng":8.9153738},{"id":"BR-SAR-SUD-113","name":"B 11 G","lat":38.9166265,"lng":8.9113588},{"id":"BR-SAR-SUD-114","name":"Lido Domus De Maria 114","lat":38.9123844,"lng":8.9082391},{"id":"BR-SAR-SUD-115","name":"Lido Domus De Maria 115","lat":38.906607,"lng":8.90373},{"id":"BR-SAR-SUD-116","name":"Lido Domus De Maria 116","lat":38.8986389,"lng":8.889888899999999},{"id":"BR-SAR-SUD-117","name":"Lido Domus De Maria 117","lat":38.8974939,"lng":8.8855513},{"id":"BR-SAR-SUD-118","name":"Lido Domus De Maria 118","lat":38.8966099,"lng":8.881455599999999},{"id":"BR-SAR-SUD-119","name":"Lido Domus De Maria 119","lat":38.888639,"lng":8.870612699999999},{"id":"BR-SAR-SUD-120","name":"Beach Bar","lat":38.8859214,"lng":8.8655595},{"id":"BR-SAR-SUD-121","name":"Lido Domus De Maria 121","lat":38.8851689,"lng":8.864452499999999},{"id":"BR-SAR-SUD-122","name":"Entu Beach Bar","lat":38.8835105,"lng":8.8628209},{"id":"BR-SAR-SUD-123","name":"Lido Domus De Maria 123","lat":38.881771,"lng":8.8590593},{"id":"BR-SAR-SUD-124","name":"Lido Domus De Maria 124","lat":38.8809878,"lng":8.8584449},{"id":"BR-SAR-SUD-125","name":"Lighthouse Experience","lat":38.8770361,"lng":8.845294599999999},{"id":"BR-SAR-SUD-126","name":"Sa Pinnetta","lat":38.8907633,"lng":8.8275817},{"id":"BR-SAR-SUD-127","name":"Lido Teulada 127","lat":38.8921271,"lng":8.8223289},{"id":"BR-SAR-SUD-128","name":"Tuerredda Beach Club","lat":38.8906216,"lng":8.813798799999999},{"id":"BR-SAR-SUD-129","name":"Tuerredda Beach Club","lat":38.894743,"lng":8.813443399999999},{"id":"BR-SAR-SUD-130","name":"Lido Teulada 130","lat":38.8950499,"lng":8.8124038},{"id":"BR-SAR-SUD-131","name":"Torre di Pixinnì","lat":38.9053449,"lng":8.7791163},{"id":"BR-SAR-SUD-132","name":"Lido Domus De Maria 132","lat":38.9067823,"lng":8.779776},{"id":"BR-SAR-SUD-133","name":"Lido Domus De Maria 133","lat":38.9129684,"lng":8.7808712},{"id":"BR-SAR-SUD-134","name":"Lido Teulada 134","lat":38.9156441,"lng":8.7752538},{"id":"BR-SAR-SUD-135","name":"Lido Teulada 135","lat":38.91538,"lng":8.77475},{"id":"BR-SAR-SUD-136","name":"Lido Teulada 136","lat":38.9161369,"lng":8.768142899999999},{"id":"BR-SAR-SUD-137","name":"Lido Teulada 137","lat":38.9171542,"lng":8.7630699},{"id":"BR-SAR-SUD-138","name":"Lido Teulada 138","lat":38.9191853,"lng":8.759138799999999},{"id":"BR-SAR-SUD-139","name":"Porto Budello","lat":38.9313889,"lng":8.719999999999999},{"id":"BR-SAR-SUD-140","name":"Lido Teulada 140","lat":38.9245415,"lng":8.7112634},{"id":"BR-SAR-SUD-141","name":"Lido Teulada 141","lat":38.9239032,"lng":8.7104225},{"id":"BR-SAR-SUD-142","name":"Lido Teulada 142","lat":38.9213655,"lng":8.7064904},{"id":"BR-SAR-SUD-143","name":"Lido Teulada 143","lat":38.9188258,"lng":8.6937328},{"id":"BR-SAR-SUD-144","name":"Punta della Torre","lat":38.9129464,"lng":8.6654764},{"id":"BR-SAR-SUD-145","name":"Punta di Tonnara","lat":38.8873681,"lng":8.6480695},{"id":"BR-SAR-SUD-146","name":"Punta di Tonnara","lat":38.8833349,"lng":8.6528019},{"id":"BR-SAR-SUD-147","name":"Lido Teulada 147","lat":38.9184105,"lng":8.6216293},{"id":"BR-SAR-SUD-148","name":"Lido Teulada 148","lat":38.9466718,"lng":8.6214922},{"id":"BR-SAR-SUD-149","name":"Oasi Azzurra","lat":38.95418919999999,"lng":8.6159769},{"id":"BR-SAR-SUD-150","name":"Caraibi Beach","lat":38.9549198,"lng":8.6155323},{"id":"BR-SAR-SUD-151","name":"Porto Pino","lat":38.9605357,"lng":8.6097737},{"id":"BR-SAR-SUD-152","name":"Lido Sant'anna Arresi 152","lat":38.9621333,"lng":8.606785},{"id":"BR-SAR-SUD-153","name":"Lido Sant'anna Arresi 153","lat":38.96291859999999,"lng":8.6042244},{"id":"BR-SAR-SUD-154","name":"Lido Sant'anna Arresi 154","lat":38.9630088,"lng":8.6014156},{"id":"BR-SAR-SUD-155","name":"Porto Pino","lat":38.9628631,"lng":8.5987896},{"id":"BR-SAR-SUD-156","name":"Porto Pino","lat":38.9628936,"lng":8.598193199999999},{"id":"BR-SAR-SUD-157","name":"Porto Pino","lat":38.9625148,"lng":8.5975933},{"id":"BR-SAR-SUD-158","name":"Grotta dei Baci","lat":38.9567313,"lng":8.5946482},{"id":"BR-SAR-SUD-159","name":"Lido Sant'anna Arresi 159","lat":38.9641634,"lng":8.5892976},{"id":"BR-SAR-SUD-160","name":"Porto Pino","lat":38.965165,"lng":8.5879767},{"id":"BR-SAR-SUD-161","name":"Portopinetto","lat":38.9685361,"lng":8.585437899999999},{"id":"BR-SAR-SUD-162","name":"Lido Masainas 162","lat":39.0244095,"lng":8.5762751},{"id":"BR-SAR-SUD-163","name":"Lido Giba 163","lat":39.0425404,"lng":8.5682567},{"id":"BR-SAR-SUD-164","name":"Lido Palmas 164","lat":39.0531983,"lng":8.5352788},{"id":"BR-SAR-SUD-165","name":"Lido Sant'antioco 165","lat":39.015574,"lng":8.4499126},{"id":"BR-SAR-SUD-166","name":"Lido Sant'antioco 166","lat":38.9980732,"lng":8.4488025},{"id":"BR-SAR-SUD-167","name":"Lido Sant'antioco 167","lat":38.9932737,"lng":8.450321299999999},{"id":"BR-SAR-SUD-168","name":"Lido Sant'antioco 168","lat":38.981928,"lng":8.443261399999999},{"id":"BR-SAR-SUD-169","name":"Lido Sant'antioco 169","lat":38.9802135,"lng":8.441780099999999},{"id":"BR-SAR-SUD-170","name":"Torre di Cannai","lat":38.9691172,"lng":8.4435548},{"id":"BR-SAR-SUD-171","name":"Lido Sant'antioco 171","lat":38.9686088,"lng":8.4405886},{"id":"BR-SAR-SUD-172","name":"Peonia Rosa","lat":38.9675233,"lng":8.438274999999999},{"id":"BR-SAR-SUD-173","name":"Peonia Rosa","lat":38.9613229,"lng":8.4322271},{"id":"BR-SAR-SUD-174","name":"Peonia Rosa","lat":38.9609525,"lng":8.4189563},{"id":"BR-SAR-SUD-175","name":"Batteria antinave Antonio Sogliuzzo","lat":38.9556647,"lng":8.414199},{"id":"BR-SAR-SUD-176","name":"Grotta delle Sirene","lat":38.9741528,"lng":8.4018266},{"id":"BR-SAR-SUD-177","name":"Arco dei Baci","lat":38.9946402,"lng":8.3877366},{"id":"BR-SAR-SUD-178","name":"Villaggio Polifemo","lat":39.00886149999999,"lng":8.3851233},{"id":"BR-SAR-SUD-179","name":"Villaggio dei Ciclopi","lat":39.0111305,"lng":8.3807679},{"id":"BR-SAR-SUD-180","name":"Villaggio dei Ciclopi","lat":39.012393,"lng":8.3763433},{"id":"BR-SAR-SUD-181","name":"Lido Calasetta 181","lat":39.0366667,"lng":8.3636111},{"id":"BR-SAR-SUD-182","name":"Lido Calasetta 182","lat":39.0689563,"lng":8.3547431},{"id":"BR-SAR-SUD-183","name":"Lido Calasetta 183","lat":39.0814212,"lng":8.3546496},{"id":"BR-SAR-SUD-184","name":"Batteria Antinave SR311","lat":39.0764912,"lng":8.3499175},{"id":"BR-SAR-SUD-185","name":"Lido Calasetta 185","lat":39.0907256,"lng":8.355183},{"id":"BR-SAR-SUD-186","name":"Camping Le Saline","lat":39.097957,"lng":8.36077},{"id":"BR-SAR-SUD-187","name":"Lido Calasetta 187","lat":39.1083488,"lng":8.364377},{"id":"BR-SAR-SUD-188","name":"Lido Calasetta 188","lat":39.111643,"lng":8.366488499999999},{"id":"BR-SAR-SUD-189","name":"Lido Calasetta 189","lat":39.0998204,"lng":8.3797131},{"id":"BR-SAR-SUD-190","name":"Lido Calasetta 190","lat":39.1025573,"lng":8.4132099},{"id":"BR-SAR-SUD-191","name":"Lido Matzaccara 191","lat":39.1117158,"lng":8.437252599999999},{"id":"BR-SAR-SUD-192","name":"Lido Matzaccara 192","lat":39.1424077,"lng":8.4370833},{"id":"BR-SAR-SUD-193","name":"Lido Paringianu 193","lat":39.1585308,"lng":8.4090897},{"id":"BR-SAR-SUD-194","name":"Lido Paringianu 194","lat":39.1667153,"lng":8.4106316},{"id":"BR-SAR-SUD-195","name":"Zona Industriale di Portovesme","lat":39.1884234,"lng":8.3998416},{"id":"BR-SAR-SUD-196","name":"Lido Portoscuso 196","lat":39.1993855,"lng":8.3873798},{"id":"BR-SAR-SUD-197","name":"Escargot","lat":39.2514245,"lng":9.5750607},{"id":"BR-SAR-SUD-198","name":"Lido Costa Rei 198","lat":39.24826789999999,"lng":9.5733076},{"id":"BR-SAR-SUD-199","name":"Lido Costa Rei 199","lat":39.2477836,"lng":9.5732159},{"id":"BR-SAR-SUD-200","name":"Lido Costa Rei 200","lat":39.2491031,"lng":9.5740438}]