[
  {
    "id": "BR-RA-MIMA-001",
    "name": "Haiti .339",
    "address": "Viale Xxvi Traversa 339, 48015 Cervia RA, Italia",
    "city": "Cervia",
    "province": "RA",
    "region": "Emilia-Romagna",
    "baselineLevel": 2,
    "baselineSource": "PRED",
    "lat": 44.2998741,
    "lng": 12.3474269,
    "notes": "lat/lng to be filled via overrides/geocoding pipeline.",
    "geocodeMeta": {
      "status": "OVERRIDE",
      "source": "GOOGLE_EARTH"
    }
  },
  {
    "id": "BR-RA-MIMA-002",
    "name": "Pineta .337B",
    "address": "337/B Via XXV Traversa Pineta, 48015 Cervia RA, Italia",
    "city": "Cervia",
    "province": "RA",
    "region": "Emilia-Romagna",
    "baselineLevel": 2,
    "baselineSource": "PRED",
    "lat": 44.2992792,
    "lng": 12.3474177,
    "notes": "lat/lng to be filled via overrides/geocoding pipeline.",
    "geocodeMeta": {
      "status": "OVERRIDE",
      "source": "GOOGLE_EARTH"
    }
  },
  {
    "id": "BR-RA-MIMA-003",
    "name": "Pineta Family Village Beach .332",
    "address": "Via XXIV 332/B, 48015 Milano Marittima RA, Italia",
    "city": "Milano Marittima",
    "province": "RA",
    "region": "Emilia-Romagna",
    "baselineLevel": 2,
    "baselineSource": "PRED",
    "lat": 44.2971122,
    "lng": 12.3480596,
    "notes": "lat/lng to be filled via overrides/geocoding pipeline.",
    "geocodeMeta": {
      "status": "OVERRIDE",
      "source": "GOOGLE_EARTH"
    }
  },
  {
    "id": "BR-RA-MIMA-004",
    "name": "Spiaggia Libera della Colonia",
    "address": "Traversa XIX Pineta, 48015 Milano Marittima RA, Italia",
    "city": "Milano Marittima",
    "province": "RA",
    "region": "Emilia-Romagna",
    "baselineLevel": 2,
    "baselineSource": "PRED",
    "lat": 44.2945141,
    "lng": 12.3484896,
    "notes": "lat/lng to be filled via overrides/geocoding pipeline.",
    "geocodeMeta": {
      "status": "OVERRIDE",
      "source": "GOOGLE_EARTH"
    }
  },
  {
    "id": "BR-RA-MIMA-005",
    "name": "Colombina .320",
    "address": "Via XIII Traversa, 48015 Cervia RA, Italia",
    "city": "Cervia",
    "province": "RA",
    "region": "Emilia-Romagna",
    "baselineLevel": 2,
    "baselineSource": "PRED",
    "lat": 44.2926286,
    "lng": 12.3489433,
    "notes": "lat/lng to be filled via overrides/geocoding pipeline.",
    "geocodeMeta": {
      "status": "OVERRIDE",
      "source": "GOOGLE_EARTH"
    }
  },
  {
    "id": "BR-RA-MIMA-006",
    "name": "Bagno Del Pino 318",
    "address": "Traversa XVII Mare 312, 48015 Milano Marittima RA, Italia",
    "city": "Milano Marittima",
    "province": "RA",
    "region": "Emilia-Romagna",
    "baselineLevel": 2,
    "baselineSource": "PRED",
    "lat": 44.2919846,
    "lng": 12.3488311,
    "notes": "lat/lng to be filled via overrides/geocoding pipeline.",
    "geocodeMeta": {
      "status": "OVERRIDE",
      "source": "GOOGLE_EARTH"
    }
  },
  {
    "id": "BR-RA-MIMA-007",
    "name": "Bagno Dario",
    "address": "Traversa XVI Pineta 315, 48015 Milano Marittima RA, Italia",
    "city": "Milano Marittima",
    "province": "RA",
    "region": "Emilia-Romagna",
    "baselineLevel": 2,
    "baselineSource": "PRED",
    "lat": 44.2911741,
    "lng": 12.3490511,
    "notes": "lat/lng to be filled via overrides/geocoding pipeline.",
    "geocodeMeta": {
      "status": "OVERRIDE",
      "source": "GOOGLE_EARTH"
    }
  },
  {
    "id": "BR-RA-MIMA-008",
    "name": "Bagno Del Pino 312",
    "address": "XV Traversa, 48015 Milano Marittima RA, Italia",
    "city": "Milano Marittima",
    "province": "RA",
    "region": "Emilia-Romagna",
    "baselineLevel": 2,
    "baselineSource": "PRED",
    "lat": 44.2904867,
    "lng": 12.3493389,
    "notes": "lat/lng to be filled via overrides/geocoding pipeline.",
    "geocodeMeta": {
      "status": "OVERRIDE",
      "source": "GOOGLE_EARTH"
    }
  },
  {
    "id": "BR-RA-MIMA-009",
    "name": "Gabbiano .311",
    "address": "Via XV Traversa Pineta 11, 48015 Milano Marittima RA, Italia",
    "city": "Milano Marittima",
    "province": "RA",
    "region": "Emilia-Romagna",
    "baselineLevel": 2,
    "baselineSource": "PRED",
    "lat": 44.2901202,
    "lng": 12.3494962,
    "notes": "lat/lng to be filled via overrides/geocoding pipeline.",
    "geocodeMeta": {
      "status": "OVERRIDE",
      "source": "GOOGLE_EARTH"
    }
  },
  {
    "id": "BR-RA-MIMA-010",
    "name": "King's Beach #310",
    "address": "Lungomare MiMa 310, 48015 Milano Marittima RA, Italia",
    "city": "Milano Marittima",
    "province": "RA",
    "region": "Emilia-Romagna",
    "baselineLevel": 2,
    "baselineSource": "PRED",
    "lat": 44.289922,
    "lng": 12.3496961,
    "notes": "lat/lng to be filled via overrides/geocoding pipeline.",
    "geocodeMeta": {
      "status": "OVERRIDE",
      "source": "GOOGLE_EARTH"
    }
  },
  {
    "id": "BR-RA-MIMA-011",
    "name": "Bagno Deanna 309",
    "address": "Via XIII Traversa 309, 48015 Cervia RA, Italia",
    "city": "Cervia",
    "province": "RA",
    "region": "Emilia-Romagna",
    "baselineLevel": 2,
    "baselineSource": "PRED",
    "lat": 44.2896811,
    "lng": 12.3495902,
    "notes": "lat/lng to be filled via overrides/geocoding pipeline.",
    "geocodeMeta": {
      "status": "OVERRIDE",
      "source": "GOOGLE_EARTH"
    }
  },
  {
    "id": "BR-RA-MIMA-012",
    "name": "Targhini .308",
    "address": "Lungomare MiMa 308, 48015 Milano Marittima RA, Italia",
    "city": "Milano Marittima",
    "province": "RA",
    "region": "Emilia-Romagna",
    "baselineLevel": 2,
    "baselineSource": "PRED",
    "lat": 44.2892484,
    "lng": 12.3497028,
    "notes": "lat/lng to be filled via overrides/geocoding pipeline.",
    "geocodeMeta": {
      "status": "OVERRIDE",
      "source": "GOOGLE_EARTH"
    }
  },
  {
    "id": "BR-RA-MIMA-013",
    "name": "Bagno Virtual Beach 299",
    "address": "V. IX Traversa, 48015 Milano Marittima RA, Italia",
    "city": "Milano Marittima",
    "province": "RA",
    "region": "Emilia-Romagna",
    "baselineLevel": 2,
    "baselineSource": "PRED",
    "lat": 44.2862401,
    "lng": 12.3503657,
    "notes": "lat/lng to be filled via overrides/geocoding pipeline.",
    "geocodeMeta": {
      "status": "OVERRIDE",
      "source": "GOOGLE_EARTH"
    }
  },
  {
    "id": "BR-RA-MIMA-014",
    "name": "Premier Palm Beach .296",
    "address": "Lungomare MiMa 296, 48015 Milano Marittima RA, Italia",
    "city": "Milano Marittima",
    "province": "RA",
    "region": "Emilia-Romagna",
    "baselineLevel": 2,
    "baselineSource": "PRED",
    "lat": 44.285218,
    "lng": 12.3510353,
    "notes": "lat/lng to be filled via overrides/geocoding pipeline.",
    "geocodeMeta": {
      "status": "OVERRIDE",
      "source": "GOOGLE_EARTH"
    }
  },
  {
    "id": "BR-RA-MIMA-015",
    "name": "Duenoveuno Beach .291",
    "address": "Traversa VI, 48015 Milano Marittima RA, Italia",
    "city": "Milano Marittima",
    "province": "RA",
    "region": "Emilia-Romagna",
    "baselineLevel": 2,
    "baselineSource": "PRED",
    "lat": 44.2841147,
    "lng": 12.3510359,
    "notes": "lat/lng to be filled via overrides/geocoding pipeline.",
    "geocodeMeta": {
      "status": "OVERRIDE",
      "source": "GOOGLE_EARTH"
    }
  },
  {
    "id": "BR-RA-MIMA-016",
    "name": "Bagno Gallia 287",
    "address": "Piazzale Torino, 48015 Milano Marittima RA, Italia",
    "city": "Milano Marittima",
    "province": "RA",
    "region": "Emilia-Romagna",
    "baselineLevel": 2,
    "baselineSource": "PRED",
    "lat": 44.2833037,
    "lng": 12.3515451,
    "notes": "lat/lng to be filled via overrides/geocoding pipeline.",
    "geocodeMeta": {
      "status": "OVERRIDE",
      "source": "GOOGLE_EARTH"
    }
  },
  {
    "id": "BR-RA-MIMA-017",
    "name": "Flamingo beach .283",
    "address": "Lungomare MiMa 283, 48015 Milano Marittima RA, Italia",
    "city": "Milano Marittima",
    "province": "RA",
    "region": "Emilia-Romagna",
    "baselineLevel": 2,
    "baselineSource": "PRED",
    "lat": 44.2823171,
    "lng": 12.3519447,
    "notes": "lat/lng to be filled via overrides/geocoding pipeline.",
    "geocodeMeta": {
      "status": "OVERRIDE",
      "source": "GOOGLE_EARTH"
    }
  },
  {
    "id": "BR-RA-MIMA-018",
    "name": "Papeete Beach",
    "address": "Via III Traversa 281, 48015 Milano Marittima RA, Italia",
    "city": "Milano Marittima",
    "province": "RA",
    "region": "Emilia-Romagna",
    "baselineLevel": 2,
    "baselineSource": "PRED",
    "lat": 44.2816929,
    "lng": 12.3521182,
    "notes": "lat/lng to be filled via overrides/geocoding pipeline.",
    "geocodeMeta": {
      "status": "OVERRIDE",
      "source": "GOOGLE_EARTH"
    }
  },
  {
    "id": "BR-RA-MIMA-019",
    "name": "Bagno Rouge 280",
    "address": "Via III Traversa 26, 48015 Milano Marittima RA, Italia",
    "city": "Milano Marittima",
    "province": "RA",
    "region": "Emilia-Romagna",
    "baselineLevel": 2,
    "baselineSource": "PRED",
    "lat": 44.2813145,
    "lng": 12.3522253,
    "notes": "lat/lng to be filled via overrides/geocoding pipeline.",
    "geocodeMeta": {
      "status": "OVERRIDE",
      "source": "GOOGLE_EARTH"
    }
  },
  {
    "id": "BR-RA-MIMA-020",
    "name": "Corallo Beach .279",
    "address": "Viale 2a Traversa 279, 48015 Milano Marittima RA, Italia",
    "city": "Milano Marittima",
    "province": "RA",
    "region": "Emilia-Romagna",
    "baselineLevel": 2,
    "baselineSource": "PRED",
    "lat": 44.2811056,
    "lng": 12.3524274,
    "notes": "lat/lng to be filled via overrides/geocoding pipeline.",
    "geocodeMeta": {
      "status": "OVERRIDE",
      "source": "GOOGLE_EARTH"
    }
  },
  {
    "id": "BR-RA-MIMA-021",
    "name": "Bicio Papao .276",
    "address": "Viale Spalato 276, 48015 Cervia RA, Italia",
    "city": "Cervia",
    "province": "RA",
    "region": "Emilia-Romagna",
    "baselineLevel": 2,
    "baselineSource": "PRED",
    "lat": 44.2798486,
    "lng": 12.352992,
    "notes": "lat/lng to be filled via overrides/geocoding pipeline.",
    "geocodeMeta": {
      "status": "OVERRIDE",
      "source": "GOOGLE_EARTH"
    }
  },
  {
    "id": "BR-RA-MIMA-022",
    "name": "Club Milano .273",
    "address": "Viale Spalato 273, 48015 Cervia RA, Italia",
    "city": "Cervia",
    "province": "RA",
    "region": "Emilia-Romagna",
    "baselineLevel": 2,
    "baselineSource": "PRED",
    "lat": 44.2791311,
    "lng": 12.3531779,
    "notes": "lat/lng to be filled via overrides/geocoding pipeline.",
    "geocodeMeta": {
      "status": "OVERRIDE",
      "source": "GOOGLE_EARTH"
    }
  },
  {
    "id": "BR-RA-MIMA-023",
    "name": "Mi.Ma. Beach .272",
    "address": "Lungomare MiMa 272, 48015 Milano Marittima RA, Italia",
    "city": "Milano Marittima",
    "province": "RA",
    "region": "Emilia-Romagna",
    "baselineLevel": 2,
    "baselineSource": "PRED",
    "lat": 44.278805,
    "lng": 12.3531846,
    "notes": "lat/lng to be filled via overrides/geocoding pipeline.",
    "geocodeMeta": {
      "status": "OVERRIDE",
      "source": "GOOGLE_EARTH"
    }
  },
  {
    "id": "BR-RA-MIMA-024",
    "name": "Albacore .271",
    "address": "Lungomare MiMa 271, 48015 Milano Marittima RA, Italia",
    "city": "Milano Marittima",
    "province": "RA",
    "region": "Emilia-Romagna",
    "baselineLevel": 2,
    "baselineSource": "PRED",
    "lat": 44.2785706,
    "lng": 12.3529579,
    "notes": "lat/lng to be filled via overrides/geocoding pipeline.",
    "geocodeMeta": {
      "status": "OVERRIDE",
      "source": "GOOGLE_EARTH"
    }
  },
  {
    "id": "BR-RA-MIMA-025",
    "name": "Roma .269",
    "address": "Viale Forlì, 48015 Cervia RA, Italia",
    "city": "Cervia",
    "province": "RA",
    "region": "Emilia-Romagna",
    "baselineLevel": 2,
    "baselineSource": "PRED",
    "lat": 44.2781366,
    "lng": 12.3533353,
    "notes": "lat/lng to be filled via overrides/geocoding pipeline.",
    "geocodeMeta": {
      "status": "OVERRIDE",
      "source": "GOOGLE_EARTH"
    }
  },
  {
    "id": "BR-RA-MIMA-026",
    "name": "Spiaggia Centrale [libera]",
    "address": "Lungomare MiMa 268, 48015 Milano Marittima RA, Italia",
    "city": "Milano Marittima",
    "province": "RA",
    "region": "Emilia-Romagna",
    "baselineLevel": 2,
    "baselineSource": "PRED",
    "lat": 44.2778624,
    "lng": 12.3532754,
    "notes": "lat/lng to be filled via overrides/geocoding pipeline.",
    "geocodeMeta": {
      "status": "OVERRIDE",
      "source": "GOOGLE_EARTH"
    }
  },
  {
    "id": "BR-RA-MIMA-027",
    "name": "Zefiro 268 - Ristorante e Spiaggia",
    "address": "Viale Forlì 268, 48015 Milano Marittima RA, Italia",
    "city": "Milano Marittima",
    "province": "RA",
    "region": "Emilia-Romagna",
    "baselineLevel": 2,
    "baselineSource": "PRED",
    "lat": 44.2776404,
    "lng": 12.3531474,
    "notes": "lat/lng to be filled via overrides/geocoding pipeline.",
    "geocodeMeta": {
      "status": "OVERRIDE",
      "source": "GOOGLE_EARTH"
    }
  },
  {
    "id": "BR-RA-MIMA-028",
    "name": "Margò Beach 266",
    "address": "Via Zara 266, 48015 Milano Marittima RA, Italia",
    "city": "Milano Marittima",
    "province": "RA",
    "region": "Emilia-Romagna",
    "baselineLevel": 2,
    "baselineSource": "PRED",
    "lat": 44.2771687,
    "lng": 12.3535234,
    "notes": "lat/lng to be filled via overrides/geocoding pipeline.",
    "geocodeMeta": {
      "status": "OVERRIDE",
      "source": "GOOGLE_EARTH"
    }
  },
  {
    "id": "BR-RA-MIMA-029",
    "name": "La Barcaccia .265",
    "address": "Lungomare MiMa 265, 48015 Milano Marittima RA, Italia",
    "city": "Milano Marittima",
    "province": "RA",
    "region": "Emilia-Romagna",
    "baselineLevel": 2,
    "baselineSource": "PRED",
    "lat": 44.2769648,
    "lng": 12.35346,
    "notes": "lat/lng to be filled via overrides/geocoding pipeline.",
    "geocodeMeta": {
      "status": "OVERRIDE",
      "source": "GOOGLE_EARTH"
    }
  },
  {
    "id": "BR-RA-MIMA-030",
    "name": "Adriatico .263",
    "address": "Lungomare MiMa 263, 48015 Milano Marittima RA, Italia",
    "city": "Milano Marittima",
    "province": "RA",
    "region": "Emilia-Romagna",
    "baselineLevel": 2,
    "baselineSource": "PRED",
    "lat": 44.2764147,
    "lng": 12.3536336,
    "notes": "lat/lng to be filled via overrides/geocoding pipeline.",
    "geocodeMeta": {
      "status": "OVERRIDE",
      "source": "GOOGLE_EARTH"
    }
  },
  {
    "id": "BR-RA-MIMA-031",
    "name": "Tonino .262",
    "address": "Lungomare MiMa 262, 48015 Milano Marittima RA, Italia",
    "city": "Milano Marittima",
    "province": "RA",
    "region": "Emilia-Romagna",
    "baselineLevel": 2,
    "baselineSource": "PRED",
    "lat": 44.2761351,
    "lng": 12.3538365,
    "notes": "lat/lng to be filled via overrides/geocoding pipeline.",
    "geocodeMeta": {
      "status": "OVERRIDE",
      "source": "GOOGLE_EARTH"
    }
  },
  {
    "id": "BR-RA-MIMA-032",
    "name": "Bagno Giulianini 260",
    "address": "Viale Luigi Cadorna 260, 48015 Cervia RA, Italia",
    "city": "Cervia",
    "province": "RA",
    "region": "Emilia-Romagna",
    "baselineLevel": 2,
    "baselineSource": "PRED",
    "lat": 44.2756638,
    "lng": 12.3536083,
    "notes": "lat/lng to be filled via overrides/geocoding pipeline.",
    "geocodeMeta": {
      "status": "OVERRIDE",
      "source": "GOOGLE_EARTH"
    }
  },
  {
    "id": "BR-RA-MIMA-033",
    "name": "Casta Beach .259",
    "address": "Lungomare MiMa 259, 48015 Milano Marittima RA, Italia",
    "city": "Milano Marittima",
    "province": "RA",
    "region": "Emilia-Romagna",
    "baselineLevel": 2,
    "baselineSource": "PRED",
    "lat": 44.275569,
    "lng": 12.3538427,
    "notes": "lat/lng to be filled via overrides/geocoding pipeline.",
    "geocodeMeta": {
      "status": "OVERRIDE",
      "source": "GOOGLE_EARTH"
    }
  },
  {
    "id": "BR-RA-MIMA-034",
    "name": "Spiaggia Milano Marittima",
    "address": "48015 Milano Marittima RA, Italia",
    "city": "Milano Marittima",
    "province": "RA",
    "region": "Emilia-Romagna",
    "baselineLevel": 2,
    "baselineSource": "PRED",
    "lat": 44.275002,
    "lng": 12.3551196,
    "notes": "lat/lng to be filled via overrides/geocoding pipeline.",
    "geocodeMeta": {
      "status": "OVERRIDE",
      "source": "GOOGLE_EARTH"
    }
  },
  {
    "id": "BR-RA-MIMA-035",
    "name": "Enzo Malusi .258 by fam. Alessandrini",
    "address": "Arenile Demaniale/ Viale Enrico Toti 258, 48015 Milano Marittima RA, Italia",
    "city": "Milano Marittima",
    "province": "RA",
    "region": "Emilia-Romagna",
    "baselineLevel": 2,
    "baselineSource": "PRED",
    "lat": 44.2747034,
    "lng": 12.3545179,
    "notes": "lat/lng to be filled via overrides/geocoding pipeline.",
    "geocodeMeta": {
      "status": "OVERRIDE",
      "source": "GOOGLE_EARTH"
    }
  },
  {
    "id": "BR-RA-MIMA-036",
    "name": "Umberto Beach .254",
    "address": "Viale F. Baracca 254, 48015 Cervia RA, Italia",
    "city": "Cervia",
    "province": "RA",
    "region": "Emilia-Romagna",
    "baselineLevel": 2,
    "baselineSource": "PRED",
    "lat": 44.273693,
    "lng": 12.3547725,
    "notes": "lat/lng to be filled via overrides/geocoding pipeline.",
    "geocodeMeta": {
      "status": "OVERRIDE",
      "source": "GOOGLE_EARTH"
    }
  },
  {
    "id": "BR-RA-MIMA-037",
    "name": "Bagno Oreste",
    "address": "Via Arenile Demaniale 250, 48015 Milano Marittima RA, Italia",
    "city": "Milano Marittima",
    "province": "RA",
    "region": "Emilia-Romagna",
    "baselineLevel": 2,
    "baselineSource": "PRED",
    "lat": 44.2727852,
    "lng": 12.3549255,
    "notes": "lat/lng to be filled via overrides/geocoding pipeline.",
    "geocodeMeta": {
      "status": "OVERRIDE",
      "source": "GOOGLE_EARTH"
    }
  },
  {
    "id": "BR-RA-MIMA-038",
    "name": "MarePineta • Beach Club & Ristorante",
    "address": "Lungomare MiMa 248, 48015 Milano Marittima RA, Italia",
    "city": "Milano Marittima",
    "province": "RA",
    "region": "Emilia-Romagna",
    "baselineLevel": 2,
    "baselineSource": "PRED",
    "lat": 44.2719823,
    "lng": 12.355595,
    "notes": "lat/lng to be filled via overrides/geocoding pipeline.",
    "geocodeMeta": {
      "status": "OVERRIDE",
      "source": "GOOGLE_EARTH"
    }
  }
]