[
  {
    "id": "BR-RA-CERVIA-001",
    "name": "Le Saline Beach 237",
    "address": "Via Arrigo Boito, 48015 Cervia RA, Italia",
    "city": "Cervia",
    "province": "RA",
    "region": "Emilia-Romagna",
    "baselineLevel": 2,
    "baselineSource": "PRED",
    "lat": "",
    "lng": "",
    "notes": "lat/lng to be filled via overrides/geocoding pipeline."
  },
  {
    "id": "BR-RA-CERVIA-002",
    "name": "Bagno Sorriso 228",
    "address": "Lungomare Gabriele D'Annunzio 228, 48015 Cervia RA, Italia",
    "city": "Cervia",
    "province": "RA",
    "region": "Emilia-Romagna",
    "baselineLevel": 2,
    "baselineSource": "PRED",
    "lat": "",
    "lng": "",
    "notes": "lat/lng to be filled via overrides/geocoding pipeline."
  },
  {
    "id": "BR-RA-CERVIA-003",
    "name": "cerviAmare 222-226",
    "address": "Lungomare Gabriele D'Annunzio 222/226, 48015 Cervia RA, Italia",
    "city": "Cervia",
    "province": "RA",
    "region": "Emilia-Romagna",
    "baselineLevel": 2,
    "baselineSource": "PRED",
    "lat": "",
    "lng": "",
    "notes": "lat/lng to be filled via overrides/geocoding pipeline."
  },
  {
    "id": "BR-RA-CERVIA-004",
    "name": "Simple 205",
    "address": "Lungomare Grazia Deledda 205, 48015 Cervia RA, Italia",
    "city": "Cervia",
    "province": "RA",
    "region": "Emilia-Romagna",
    "baselineLevel": 2,
    "baselineSource": "PRED",
    "lat": "",
    "lng": "",
    "notes": "lat/lng to be filled via overrides/geocoding pipeline."
  },
  {
    "id": "BR-RA-CERVIA-005",
    "name": "Sarabi Beach",
    "address": "Lungomare Grazia Deledda 203, 48015 Cervia RA, Italia",
    "city": "Cervia",
    "province": "RA",
    "region": "Emilia-Romagna",
    "baselineLevel": 2,
    "baselineSource": "PRED",
    "lat": "",
    "lng": "",
    "notes": "lat/lng to be filled via overrides/geocoding pipeline."
  },
  {
    "id": "BR-RA-CERVIA-006",
    "name": "Bagno Anna Cervia",
    "address": "Lungomare Grazia Deledda 199, 48015 Cervia RA, Italia",
    "city": "Cervia",
    "province": "RA",
    "region": "Emilia-Romagna",
    "baselineLevel": 2,
    "baselineSource": "PRED",
    "lat": "",
    "lng": "",
    "notes": "lat/lng to be filled via overrides/geocoding pipeline."
  },
  {
    "id": "BR-RA-CERVIA-007",
    "name": "Oba Oba Beach .194",
    "address": "Lungomare Grazia Deledda 194, 48015 Cervia RA, Italia",
    "city": "Cervia",
    "province": "RA",
    "region": "Emilia-Romagna",
    "baselineLevel": 2,
    "baselineSource": "PRED",
    "lat": "",
    "lng": "",
    "notes": "lat/lng to be filled via overrides/geocoding pipeline."
  },
  {
    "id": "BR-RA-CERVIA-008",
    "name": "Spiaggia libera di Cervia",
    "address": "Lungomare Grazia Deledda 38, 48015 Cervia RA, Italia",
    "city": "Cervia",
    "province": "RA",
    "region": "Emilia-Romagna",
    "baselineLevel": 2,
    "baselineSource": "PRED",
    "lat": "",
    "lng": "",
    "notes": "lat/lng to be filled via overrides/geocoding pipeline."
  },
  {
    "id": "BR-RA-CERVIA-009",
    "name": "IronMan start",
    "address": "48015 Cervia RA, Italia",
    "city": "Cervia",
    "province": "RA",
    "region": "Emilia-Romagna",
    "baselineLevel": 2,
    "baselineSource": "PRED",
    "lat": "",
    "lng": "",
    "notes": "lat/lng to be filled via overrides/geocoding pipeline."
  },
  {
    "id": "BR-RA-CERVIA-010",
    "name": "Bagno Marco N. 184",
    "address": "Lungomare Grazia Deledda 184, 48015 Cervia RA, Italia",
    "city": "Cervia",
    "province": "RA",
    "region": "Emilia-Romagna",
    "baselineLevel": 2,
    "baselineSource": "PRED",
    "lat": "",
    "lng": "",
    "notes": "lat/lng to be filled via overrides/geocoding pipeline."
  },
  {
    "id": "BR-RA-CERVIA-011",
    "name": "Fantini Club",
    "address": "Lungomare Grazia Deledda 182, 48015 Cervia RA, Italia",
    "city": "Cervia",
    "province": "RA",
    "region": "Emilia-Romagna",
    "baselineLevel": 2,
    "baselineSource": "PRED",
    "lat": "",
    "lng": "",
    "notes": "lat/lng to be filled via overrides/geocoding pipeline."
  },
  {
    "id": "BR-RA-CERVIA-012",
    "name": "Bagno Romagnolo",
    "address": "Lungomare Grazia Deledda 173, 48015 Cervia RA, Italia",
    "city": "Cervia",
    "province": "RA",
    "region": "Emilia-Romagna",
    "baselineLevel": 2,
    "baselineSource": "PRED",
    "lat": "",
    "lng": "",
    "notes": "lat/lng to be filled via overrides/geocoding pipeline."
  },
  {
    "id": "BR-RA-CERVIA-013",
    "name": "Bagno 169",
    "address": "Lungomare Grazia Deledda 170, 48015 Cervia RA, Italia",
    "city": "Cervia",
    "province": "RA",
    "region": "Emilia-Romagna",
    "baselineLevel": 2,
    "baselineSource": "PRED",
    "lat": "",
    "lng": "",
    "notes": "lat/lng to be filled via overrides/geocoding pipeline."
  },
  {
    "id": "BR-RA-CERVIA-014",
    "name": "Bagno Jacar√®",
    "address": "Lungomare Grazia Deledda 167, 48015 Cervia RA, Italia",
    "city": "Cervia",
    "province": "RA",
    "region": "Emilia-Romagna",
    "baselineLevel": 2,
    "baselineSource": "PRED",
    "lat": "",
    "lng": "",
    "notes": "lat/lng to be filled via overrides/geocoding pipeline."
  },
  {
    "id": "BR-RA-CERVIA-015",
    "name": "Isola 159",
    "address": "Lungomare Grazia Deledda 159/b, 48015 Cervia RA, Italia",
    "city": "Cervia",
    "province": "RA",
    "region": "Emilia-Romagna",
    "baselineLevel": 2,
    "baselineSource": "PRED",
    "lat": "",
    "lng": "",
    "notes": "lat/lng to be filled via overrides/geocoding pipeline."
  },
  {
    "id": "BR-RA-CERVIA-016",
    "name": "Bagno Balmor 156",
    "address": "Lungomare Grazia Deledda 156, 48015 Cervia RA, Italia",
    "city": "Cervia",
    "province": "RA",
    "region": "Emilia-Romagna",
    "baselineLevel": 2,
    "baselineSource": "PRED",
    "lat": "",
    "lng": "",
    "notes": "lat/lng to be filled via overrides/geocoding pipeline."
  },
  {
    "id": "BR-RA-CERVIA-017",
    "name": "Saretina 152",
    "address": "Lungomare Grazia Deledda 152, 48015 Cervia RA, Italia",
    "city": "Cervia",
    "province": "RA",
    "region": "Emilia-Romagna",
    "baselineLevel": 2,
    "baselineSource": "PRED",
    "lat": "",
    "lng": "",
    "notes": "lat/lng to be filled via overrides/geocoding pipeline."
  },
  {
    "id": "BR-RA-CERVIA-018",
    "name": "Medusa Beach 146 Cervia",
    "address": "Lungomare Grazia Deledda 146, 48015 Cervia RA, Italia",
    "city": "Cervia",
    "province": "RA",
    "region": "Emilia-Romagna",
    "baselineLevel": 2,
    "baselineSource": "PRED",
    "lat": "",
    "lng": "",
    "notes": "lat/lng to be filled via overrides/geocoding pipeline."
  },
  {
    "id": "BR-RA-CERVIA-019",
    "name": "spiaggia libera",
    "address": "Via Arenile Demaniale 127, 48015 Cervia RA, Italia",
    "city": "Cervia",
    "province": "RA",
    "region": "Emilia-Romagna",
    "baselineLevel": 2,
    "baselineSource": "PRED",
    "lat": "",
    "lng": "",
    "notes": "lat/lng to be filled via overrides/geocoding pipeline."
  },
  {
    "id": "BR-RA-CERVIA-020",
    "name": "Bagno Delfino",
    "address": "Via Arenile Demaniale 127-131, 48015 Cervia RA, Italia",
    "city": "Cervia",
    "province": "RA",
    "region": "Emilia-Romagna",
    "baselineLevel": 2,
    "baselineSource": "PRED",
    "lat": "",
    "lng": "",
    "notes": "lat/lng to be filled via overrides/geocoding pipeline."
  },
  {
    "id": "BR-RA-CERVIA-021",
    "name": "Bagno Paola",
    "address": "Via Arenile Demaniale 126, 48015 Cervia RA, Italia",
    "city": "Cervia",
    "province": "RA",
    "region": "Emilia-Romagna",
    "baselineLevel": 2,
    "baselineSource": "PRED",
    "lat": "",
    "lng": "",
    "notes": "lat/lng to be filled via overrides/geocoding pipeline."
  },
  {
    "id": "BR-RA-CERVIA-022",
    "name": "Bagno Vittorio 124",
    "address": "Via Arenile Demaniale 124, 48015 Cervia RA, Italia",
    "city": "Cervia",
    "province": "RA",
    "region": "Emilia-Romagna",
    "baselineLevel": 2,
    "baselineSource": "PRED",
    "lat": "",
    "lng": "",
    "notes": "lat/lng to be filled via overrides/geocoding pipeline."
  },
  {
    "id": "BR-RA-CERVIA-023",
    "name": "Bagno Pineta 120",
    "address": "Via Arenile Demaniale 93, 48015 Cervia RA, Italia",
    "city": "Cervia",
    "province": "RA",
    "region": "Emilia-Romagna",
    "baselineLevel": 2,
    "baselineSource": "PRED",
    "lat": "",
    "lng": "",
    "notes": "lat/lng to be filled via overrides/geocoding pipeline."
  },
  {
    "id": "BR-RA-CERVIA-024",
    "name": "Bagno Sole Pinarella",
    "address": "Viale Italia, 48015 Pinarella RA",
    "city": "Pinarella",
    "province": "RA",
    "region": "Emilia-Romagna",
    "baselineLevel": 2,
    "baselineSource": "PRED",
    "lat": "",
    "lng": "",
    "notes": "lat/lng to be filled via overrides/geocoding pipeline."
  },
  {
    "id": "BR-RA-CERVIA-025",
    "name": "Adriasol Spiaggia 111",
    "address": "Via Arenile Demaniale 85/86, 48015 Cervia RA, Italia",
    "city": "Cervia",
    "province": "RA",
    "region": "Emilia-Romagna",
    "baselineLevel": 2,
    "baselineSource": "PRED",
    "lat": "",
    "lng": "",
    "notes": "lat/lng to be filled via overrides/geocoding pipeline."
  },
  {
    "id": "BR-RA-CERVIA-026",
    "name": "Bagno Andreucci Beach 107",
    "address": "Via Arenile Demaniale, 48015 Pinarella di Cervia RA, Italia",
    "city": "Pinarella di Cervia",
    "province": "RA",
    "region": "Emilia-Romagna",
    "baselineLevel": 2,
    "baselineSource": "PRED",
    "lat": "",
    "lng": "",
    "notes": "lat/lng to be filled via overrides/geocoding pipeline."
  },
  {
    "id": "BR-RA-CERVIA-027",
    "name": "Bagno Anna 95",
    "address": "Via Arenile Demaniale 95, 48015 Cervia RA, Italia",
    "city": "Cervia",
    "province": "RA",
    "region": "Emilia-Romagna",
    "baselineLevel": 2,
    "baselineSource": "PRED",
    "lat": "",
    "lng": "",
    "notes": "lat/lng to be filled via overrides/geocoding pipeline."
  },
  {
    "id": "BR-RA-CERVIA-028",
    "name": "Bagno Palm Beach 87/88",
    "address": "Via Arenile Demaniale 87, 48015 Cervia RA, Italia",
    "city": "Cervia",
    "province": "RA",
    "region": "Emilia-Romagna",
    "baselineLevel": 2,
    "baselineSource": "PRED",
    "lat": "",
    "lng": "",
    "notes": "lat/lng to be filled via overrides/geocoding pipeline."
  },
  {
    "id": "BR-RA-CERVIA-029",
    "name": "Spiaggia Margherita 85-86",
    "address": "Via Arenile Demaniale, 48015 Cervia RA, Italia",
    "city": "Cervia",
    "province": "RA",
    "region": "Emilia-Romagna",
    "baselineLevel": 2,
    "baselineSource": "PRED",
    "lat": "",
    "lng": "",
    "notes": "lat/lng to be filled via overrides/geocoding pipeline."
  },
  {
    "id": "BR-RA-CERVIA-030",
    "name": "Tre Stelle 80",
    "address": "Via Arenile Demaniale 80, 48015 RA, Italia",
    "city": "RA",
    "province": "RA",
    "region": "Emilia-Romagna",
    "baselineLevel": 2,
    "baselineSource": "PRED",
    "lat": "",
    "lng": "",
    "notes": "lat/lng to be filled via overrides/geocoding pipeline."
  },
  {
    "id": "BR-RA-CERVIA-031",
    "name": "Bagno Settebello Nr.76",
    "address": "Via Arenile Demaniale 76, 48015 Cervia RA, Italia",
    "city": "Cervia",
    "province": "RA",
    "region": "Emilia-Romagna",
    "baselineLevel": 2,
    "baselineSource": "PRED",
    "lat": "",
    "lng": "",
    "notes": "lat/lng to be filled via overrides/geocoding pipeline."
  },
  {
    "id": "BR-RA-CERVIA-032",
    "name": "Bagno Franco",
    "address": "viale Italia 70/71 48015 Pinarella di, 48015 Cervia RA",
    "city": "Cervia",
    "province": "RA",
    "region": "Emilia-Romagna",
    "baselineLevel": 2,
    "baselineSource": "PRED",
    "lat": "",
    "lng": "",
    "notes": "lat/lng to be filled via overrides/geocoding pipeline."
  },
  {
    "id": "BR-RA-CERVIA-033",
    "name": "Bagno Oasi 67",
    "address": "Viale Italia 67, 48015 Cervia RA",
    "city": "Cervia",
    "province": "RA",
    "region": "Emilia-Romagna",
    "baselineLevel": 2,
    "baselineSource": "PRED",
    "lat": "",
    "lng": "",
    "notes": "lat/lng to be filled via overrides/geocoding pipeline."
  },
  {
    "id": "BR-RA-CERVIA-034",
    "name": "Bagno Mediterraneo 65",
    "address": "Via Arenile Demaniale 65, 48015 Cervia RA, Italia",
    "city": "Cervia",
    "province": "RA",
    "region": "Emilia-Romagna",
    "baselineLevel": 2,
    "baselineSource": "PRED",
    "lat": "",
    "lng": "",
    "notes": "lat/lng to be filled via overrides/geocoding pipeline."
  },
  {
    "id": "BR-RA-CERVIA-035",
    "name": "Vanilla Beach",
    "address": "Via Arenile Demaniale 60/61, 48015 Cervia RA, Italia",
    "city": "Cervia",
    "province": "RA",
    "region": "Emilia-Romagna",
    "baselineLevel": 2,
    "baselineSource": "PRED",
    "lat": "",
    "lng": "",
    "notes": "lat/lng to be filled via overrides/geocoding pipeline."
  },
  {
    "id": "BR-RA-CERVIA-036",
    "name": "Stabilimento Balneare Aeronautica Militare",
    "address": "Via Arenile Demaniale 14, 48015 Tagliata di Cervia RA, Italia",
    "city": "Tagliata di Cervia",
    "province": "RA",
    "region": "Emilia-Romagna",
    "baselineLevel": 2,
    "baselineSource": "PRED",
    "lat": "",
    "lng": "",
    "notes": "lat/lng to be filled via overrides/geocoding pipeline."
  },
  {
    "id": "BR-RA-CERVIA-037",
    "name": "Bagno Jolly 16",
    "address": "Via Arenile Demaniale 15, 48015 Tagliata di Cervia RA, Italia",
    "city": "Tagliata di Cervia",
    "province": "RA",
    "region": "Emilia-Romagna",
    "baselineLevel": 2,
    "baselineSource": "PRED",
    "lat": "",
    "lng": "",
    "notes": "lat/lng to be filled via overrides/geocoding pipeline."
  },
  {
    "id": "BR-RA-CERVIA-038",
    "name": "Bagno Primavera n.26",
    "address": "48015 Cervia RA, Italia",
    "city": "Cervia",
    "province": "RA",
    "region": "Emilia-Romagna",
    "baselineLevel": 2,
    "baselineSource": "PRED",
    "lat": "",
    "lng": "",
    "notes": "lat/lng to be filled via overrides/geocoding pipeline."
  },
  {
    "id": "BR-RA-CERVIA-039",
    "name": "KalypsoBeach 29",
    "address": "48015 Cervia RA, Italia",
    "city": "Cervia",
    "province": "RA",
    "region": "Emilia-Romagna",
    "baselineLevel": 2,
    "baselineSource": "PRED",
    "lat": "",
    "lng": "",
    "notes": "lat/lng to be filled via overrides/geocoding pipeline."
  },
  {
    "id": "BR-RA-CERVIA-040",
    "name": "Bagno Danico 39-40",
    "address": "Viale Italia 328, 48015 Cervia RA",
    "city": "Cervia",
    "province": "RA",
    "region": "Emilia-Romagna",
    "baselineLevel": 2,
    "baselineSource": "PRED",
    "lat": "",
    "lng": "",
    "notes": "lat/lng to be filled via overrides/geocoding pipeline."
  },
  {
    "id": "BR-RA-CERVIA-041",
    "name": "Bagno 59 Pinarella di Cervia",
    "address": "Via Arenile Demaniale 59, 48015 Cervia RA, Italia",
    "city": "Cervia",
    "province": "RA",
    "region": "Emilia-Romagna",
    "baselineLevel": 2,
    "baselineSource": "PRED",
    "lat": "",
    "lng": "",
    "notes": "lat/lng to be filled via overrides/geocoding pipeline."
  }
]